City_ID,City,Lat,Lon,Temperature,Humidity,Cloudiness,Windspeed,Country,Date
0,Bluff,-46.6,168.33,50.0,86,84,8.99,NZ,1603151897
1,Hobart,-42.88,147.33,59.95,58,20,4.7,AU,1603151856
2,Caravelas,-17.71,-39.25,73.54,79,100,5.37,BR,1603152142
3,Broadstairs,51.36,1.44,52.84,66,100,8.01,GB,1603152258
4,Ushuaia,-54.8,-68.3,41.0,80,75,34.45,AR,1603151860
5,Binzhou,37.37,118.02,58.46,36,33,5.75,CN,1603152258
6,Hermanus,-34.42,19.23,57.0,81,100,3.0,ZA,1603152043
7,Nikolskoye,59.7,30.79,34.86,93,90,13.42,RU,1603152043
8,Saint-Philippe,-21.36,55.77,67.23,64,30,6.93,RE,1603152043
9,Gachsaran,30.36,50.8,60.8,38,0,2.39,IR,1603152259
10,Corcoran,36.1,-119.56,88.5,27,1,7.29,US,1603152259
11,Raudeberg,61.99,5.14,41.0,70,93,11.9,NO,1603152148
12,Pevek,69.7,170.31,25.59,93,1,14.67,RU,1603151839
13,Geraldton,-28.77,114.6,68.0,72,90,11.41,AU,1603152093
14,Rikitea,-23.12,-134.97,74.43,77,0,11.95,PF,1603151900
15,Port Lincoln,-34.73,135.87,59.27,78,100,11.61,AU,1603151949
16,New Norfolk,-42.78,147.06,58.66,67,59,1.01,AU,1603151917
17,Busselton,-33.65,115.33,61.61,80,1,11.81,AU,1603152034
18,Bethel,41.37,-73.41,55.69,82,20,3.36,US,1603152039
19,Bani Walid,31.76,13.99,60.8,67,0,6.6,LY,1603152261
20,Esperance,-33.87,121.9,60.8,100,90,8.05,AU,1603151958
21,Sisimiut,66.94,-53.67,36.32,83,100,14.41,GL,1603152166
22,Mount Gambier,-37.83,140.77,53.6,71,90,3.36,AU,1603152261
23,Cidreira,-30.18,-50.21,67.86,91,0,15.59,BR,1603152055
24,Arraial do Cabo,-22.97,-42.03,72.46,82,83,23.69,BR,1603152062
25,Charters Towers,-20.1,146.27,85.73,34,4,10.94,AU,1603152140
26,Preston,53.77,-2.72,51.01,83,100,5.01,GB,1603152262
27,Goderich,43.75,-81.72,47.26,77,100,13.56,CA,1603151961
28,Arandis,-22.42,14.97,57.0,88,0,1.99,NA,1603152262
29,Manoharpur,27.3,75.95,71.6,46,40,1.81,IN,1603152262
30,Alice Springs,-23.7,133.88,75.2,60,20,6.93,AU,1603152133
31,Bredasdorp,-34.53,20.04,59.0,72,100,11.41,ZA,1603152034
32,Carnarvon,-24.87,113.63,69.8,73,90,13.87,AU,1603151925
33,Tiksi,71.69,128.87,14.45,93,100,22.95,RU,1603151898
34,Cabo San Lucas,22.89,-109.91,88.3,52,5,11.41,MX,1603152076
35,Dingle,11.0,122.67,77.56,90,100,3.42,PH,1603152085
36,Half Moon Bay,37.46,-122.43,72.39,56,5,8.05,US,1603152234
37,Kruisfontein,-34.0,24.73,59.0,81,100,5.99,ZA,1603152044
38,Itoman,26.12,127.67,79.2,69,20,14.99,JP,1603152264
39,Cherskiy,68.75,161.3,20.59,94,7,3.8,RU,1603152075
40,Bambous Virieux,-20.34,57.76,72.27,78,40,9.17,MU,1603152086
41,Tasiilaq,65.61,-37.64,32.0,90,52,13.87,GL,1603152090
42,Qaanaaq,77.48,-69.36,29.79,89,71,9.62,GL,1603151938
43,Punta Arenas,-53.15,-70.92,41.0,75,20,33.33,CL,1603152032
44,Riosucio,5.42,-75.7,69.8,83,75,2.24,CO,1603152265
45,Kapaa,22.08,-159.32,84.56,70,40,12.75,US,1603152057
46,Şahbuz,39.41,45.57,51.8,37,0,6.93,AZ,1603152265
47,Nelson Bay,-32.72,152.15,66.81,60,75,5.82,AU,1603152109
48,Buenos Aires,-34.61,-58.38,64.6,93,90,13.87,AR,1603152266
49,Mar del Plata,-38.0,-57.56,54.77,43,84,11.41,AR,1603152040
50,Chui,-33.7,-53.46,66.58,77,0,5.86,UY,1603151916
51,Tanete,-3.94,119.78,81.75,71,74,5.84,ID,1603152266
52,Graciano Sánchez,23.92,-99.28,91.4,33,5,16.11,MX,1603152122
53,Arica,-18.48,-70.3,64.4,77,75,8.05,CL,1603152234
54,Aklavik,68.22,-135.01,23.0,85,90,10.29,CA,1603152267
55,Torbay,47.67,-52.73,50.45,87,75,9.17,CA,1603152088
56,Barrow,71.29,-156.79,23.0,79,90,12.75,US,1603151852
57,Hithadhoo,-0.6,73.08,82.69,77,94,13.11,MV,1603151912
58,Adrar,20.5,-10.07,83.97,18,0,9.78,MR,1603152086
59,Srīvardhan,18.03,73.02,76.19,86,84,3.06,IN,1603152268
60,Medak,18.03,78.27,73.0,78,97,1.01,IN,1603152268
61,Port Hardy,50.7,-127.42,55.4,66,75,8.05,CA,1603152268
62,Dikson,73.51,80.55,24.3,95,99,17.45,RU,1603152047
63,Yerbogachën,61.28,108.01,24.42,94,99,11.97,RU,1603152269
64,Berdigestyakh,62.1,126.7,19.22,96,100,5.35,RU,1603152189
65,Poum,-20.23,164.02,75.24,69,0,8.1,NC,1603152094
66,Keti Bandar,24.14,67.45,83.3,75,1,9.48,PK,1603152269
67,Ballina,-28.87,153.57,71.55,64,59,13.87,AU,1603152156
68,Sept-Îles,50.2,-66.38,41.0,100,90,6.93,CA,1603151942
69,Dicabisagan,17.08,122.42,80.53,85,100,15.37,PH,1603152261
70,Saskylakh,71.92,114.08,21.65,97,91,4.85,RU,1603151921
71,Cape Town,-33.93,18.42,56.1,93,20,5.82,ZA,1603151786
72,Albany,42.6,-73.97,55.45,87,100,4.88,US,1603152007
73,Hilo,19.73,-155.09,79.41,54,1,13.87,US,1603152010
74,Champerico,14.3,-91.92,75.83,94,75,6.93,GT,1603152152
75,Ngunguru,-35.62,174.5,66.13,64,100,11.12,NZ,1603152081
76,Port Alfred,-33.59,26.89,62.47,80,49,21.68,ZA,1603152082
77,Hong Kong,22.29,114.16,70.63,75,9,3.0,HK,1603152096
78,Teya,60.38,92.63,25.7,95,99,6.73,RU,1603152271
79,Inírida,3.87,-67.92,78.42,78,69,1.16,CO,1603152271
80,Kumul,42.8,93.45,39.31,67,3,2.28,CN,1603151973
81,Lagoa,39.05,-27.98,63.77,69,25,29.75,PT,1603152050
82,Mataura,-46.19,168.86,50.0,86,62,8.99,NZ,1603151906
83,Ponta do Sol,32.67,-17.1,66.92,88,75,6.93,PT,1603151769
84,Norfolk,42.17,-71.25,51.31,76,1,4.72,US,1603152272
85,Novikovo,51.15,37.89,38.19,77,10,7.67,RU,1603152272
86,Laguna,38.42,-121.42,89.06,19,1,9.17,US,1603152272
87,Arman',59.7,150.17,30.24,89,87,5.77,RU,1603152273
88,Jamestown,42.1,-79.24,50.36,100,90,6.93,US,1603152004
89,Boyolangu,-8.12,111.89,79.14,76,65,0.96,ID,1603152154
90,Buala,-8.14,159.59,86.88,66,64,4.54,SB,1603152138
91,Sobolevo,54.43,31.9,36.84,86,15,14.34,RU,1603152273
92,Melfort,52.87,-104.62,26.6,58,75,8.05,CA,1603152273
93,Narsaq,60.92,-46.05,33.8,78,95,4.7,GL,1603152132
94,Vaini,-21.2,-175.2,77.0,69,75,10.29,TO,1603152041
95,Atuona,-9.8,-139.03,78.49,76,1,20.27,PF,1603152040
96,Al Bardīyah,31.76,25.09,72.86,74,64,6.91,LY,1603152274
97,Beruwala,6.48,79.98,79.25,85,59,9.57,LK,1603152274
98,Airai,-8.93,125.41,74.8,40,4,2.64,TL,1603152077
99,Lebu,-37.62,-73.65,50.16,74,0,13.04,CL,1603152054
100,Nanortalik,60.14,-45.24,36.75,88,98,1.7,GL,1603151898
101,Butaritari,3.07,172.79,82.35,77,77,10.76,KI,1603152041
102,East London,-33.02,27.91,64.67,83,22,20.31,ZA,1603151865
103,Umluj,25.02,37.27,82.6,36,0,5.53,SA,1603152144
104,Puerto Ayora,-0.74,-90.35,70.0,90,99,4.0,EC,1603151965
105,Severo-Kuril'sk,50.68,156.12,41.92,65,67,9.57,RU,1603152072
106,Fortuna,40.6,-124.16,59.25,87,20,14.99,US,1603151881
107,Kawambwa,-9.79,29.08,69.39,52,52,1.92,ZM,1603152276
108,Sitka,57.05,-135.33,44.6,75,90,3.36,US,1603152008
109,Faanui,-16.48,-151.75,79.03,80,2,19.71,PF,1603152132
110,Hearst,49.68,-83.67,27.77,96,48,2.93,CA,1603152277
111,Acapulco de Juárez,16.86,-99.89,86.0,79,40,8.05,MX,1603152013
112,New York,40.71,-74.01,61.02,77,75,5.82,US,1603152021
113,Hamilton,39.18,-84.53,54.54,100,90,3.0,US,1603151890
114,Port Elizabeth,-33.92,25.57,60.8,82,20,17.22,ZA,1603152047
115,Provideniya,64.38,-173.3,35.6,80,75,2.24,RU,1603151911
116,Birao,10.28,22.79,74.71,63,79,0.09,CF,1603152277
117,Lorengau,-2.02,147.27,85.5,64,57,2.95,PG,1603152105
118,Yellowknife,62.46,-114.35,26.76,73,75,3.36,CA,1603152045
119,São João da Barra,-21.64,-41.05,72.82,82,100,11.99,BR,1603152157
120,Brits,-25.63,27.78,70.95,46,13,4.7,ZA,1603152063
121,Ribeira Grande,38.52,-28.7,64.17,68,46,27.69,PT,1603152104
122,Nome,64.5,-165.41,38.08,93,90,3.51,US,1603152146
123,Kysyl-Syr,63.9,122.76,19.78,97,99,5.06,RU,1603152048
124,Hasaki,35.73,140.83,58.3,87,75,9.17,JP,1603152056
125,Tuktoyaktuk,69.45,-133.04,24.8,85,90,16.11,CA,1603152072
126,La Ronge,55.1,-105.28,26.6,58,90,4.7,CA,1603152054
127,Novopokrovka,49.84,36.55,37.2,100,0,4.47,UA,1603152279
128,Longyearbyen,78.22,15.64,28.4,68,75,9.17,SJ,1603152148
129,Neuquén,-38.95,-68.06,66.2,25,0,5.82,AR,1603152280
130,Gijón,43.54,-5.66,60.8,72,100,3.18,ES,1603152280
131,Gutiérrez Zamora,20.45,-97.08,79.21,77,23,5.44,MX,1603152280
132,Ilulissat,69.22,-51.1,41.0,56,100,17.22,GL,1603152042
133,Marystown,47.17,-55.15,52.0,100,77,6.55,CA,1603152280
134,Vardø,70.37,31.11,40.71,70,100,16.6,NO,1603152144
135,Constitución,-35.33,-72.42,54.66,64,24,13.62,CL,1603152136
136,Pangnirtung,66.15,-65.71,24.1,93,97,2.73,CA,1603152281
137,Moba,33.23,105.02,42.48,85,100,3.18,CN,1603152281
138,Camacha,33.08,-16.33,69.8,83,75,13.87,PT,1603152281
139,Talnakh,69.49,88.4,14.0,92,90,6.71,RU,1603152074
140,Ponta Delgada,37.73,-25.67,59.0,77,40,18.34,PT,1603152281
141,Fairbanks,64.84,-147.72,20.8,79,90,2.24,US,1603152111
142,Saint George,37.1,-113.58,85.53,10,1,16.11,US,1603152039
143,Cap-aux-Meules,47.38,-61.86,51.8,87,90,6.93,CA,1603152141
144,Castro,-24.79,-50.01,62.24,95,4,6.71,BR,1603152049
145,Kupang,-10.17,123.58,86.0,55,20,2.24,ID,1603152282
146,Chegdomyn,51.12,133.02,30.43,77,9,1.59,RU,1603152282
147,Iqaluit,63.75,-68.51,23.0,79,75,6.93,CA,1603152167
148,Muzhi,65.37,64.67,15.84,97,60,0.96,RU,1603152283
149,Thompson,55.74,-97.86,28.4,68,90,5.82,CA,1603152002
150,George Town,5.41,100.34,79.25,94,20,2.24,MY,1603152056
151,Coquimbo,-29.95,-71.34,57.2,76,0,10.29,CL,1603152046
152,Lovozero,68.0,35.01,27.95,96,98,6.64,RU,1603152283
153,College,64.86,-147.8,20.77,79,90,3.36,US,1603152066
154,Margraten,50.82,5.82,42.75,75,90,5.82,NL,1603152013
155,Ostrołęka,53.09,21.58,35.29,92,1,6.93,PL,1603152284
156,Vilyuysk,63.76,121.62,21.42,97,93,8.99,RU,1603152284
157,Belaya Gora,68.53,146.42,12.97,94,81,3.6,RU,1603152176
158,Rockland,41.17,-74.05,57.69,83,100,4.76,US,1603152284
159,Fort Nelson,58.81,-122.7,28.4,54,20,3.36,CA,1603152004
160,Lázaro Cárdenas,17.96,-102.2,82.92,81,71,5.53,MX,1603152109
161,Mehamn,71.04,27.85,37.89,79,99,13.76,NO,1603152187
162,Kavieng,-2.57,150.8,84.22,68,79,1.63,PG,1603152056
163,Kaitangata,-46.28,169.85,54.52,50,71,11.95,NZ,1603152037
164,Chātakonda,17.55,80.65,75.34,92,100,1.5,IN,1603152285
165,Vestmannaeyjar,63.44,-20.27,40.08,79,99,4.12,IS,1603152285
166,Quang Ngai,15.12,108.8,76.73,91,100,3.18,VN,1603152208
167,Opuwo,-18.06,13.84,63.57,33,2,3.91,NA,1603152146
168,Catuday,16.29,119.81,81.19,80,99,8.19,PH,1603152286
169,Tsiroanomandidy,-18.77,46.03,72.03,59,96,4.34,MG,1603152286
170,Goundi,9.36,17.37,74.5,60,66,2.98,TD,1603152286
171,Souillac,-20.52,57.52,73.4,78,40,9.17,MU,1603152286
172,Marzuq,14.4,46.47,62.96,28,0,3.85,YE,1603152134
173,Saint Paul Harbor,57.79,-152.41,46.4,61,75,11.41,US,1603151897
174,Lavrentiya,65.58,-171.0,36.12,74,13,5.75,RU,1603152129
175,Storsteinnes,69.24,19.23,18.23,92,0,9.17,NO,1603152287
176,Chapais,49.78,-74.85,32.0,94,75,2.24,CA,1603152200
177,Chilca,-12.52,-76.74,63.23,72,75,13.87,PE,1603152287
178,Chara,56.91,118.26,26.46,95,100,6.67,RU,1603152188
179,Maputo,-25.97,32.59,75.99,68,0,10.0,MZ,1603152288
180,Palana,59.12,159.97,36.75,80,15,13.22,RU,1603152288
181,Khatanga,71.97,102.5,10.45,96,40,1.36,RU,1603152038
182,Giohar,2.78,45.5,75.47,88,1,7.54,SO,1603152288
183,Estelle,29.85,-90.11,76.46,94,75,4.7,US,1603152288
184,Okha,53.57,142.95,35.19,78,94,20.29,RU,1603152288
185,Kieta,-6.22,155.63,86.56,61,13,4.65,PG,1603152129
186,Gawān,28.43,78.35,68.68,27,0,4.36,IN,1603152289
187,Qaqortoq,60.72,-46.03,33.8,89,93,4.7,GL,1603152113
188,Bang Saphan,11.21,99.51,75.2,100,20,2.68,TH,1603152289
189,Mahébourg,-20.41,57.7,73.4,78,40,9.17,MU,1603151971
190,Port Blair,11.67,92.75,80.8,84,43,13.4,IN,1603152147
191,Tando Adam,25.76,68.66,69.8,73,0,5.32,PK,1603152290
192,Severo-Yeniseyskiy,60.37,93.04,22.24,97,99,7.83,RU,1603152290
193,Singkang,2.1,102.8,77.0,88,20,2.24,MY,1603152290
194,Bariloche,-41.15,-71.31,42.8,60,40,13.87,AR,1603152290
195,Paamiut,61.99,-49.67,41.65,70,100,21.5,GL,1603152115
196,Togur,58.36,82.83,33.04,97,100,9.35,RU,1603152154
197,Coyhaique,-45.58,-72.07,44.6,83,75,6.93,CL,1603152110
198,Leningradskiy,69.38,178.42,27.41,91,89,6.85,RU,1603152112
199,Ormara,25.21,64.64,78.94,26,0,11.34,PK,1603152291
200,Salacgrīva,57.75,24.36,39.0,93,92,3.0,LV,1603152291
201,Lompoc,34.64,-120.46,65.52,72,1,11.41,US,1603151992
202,Padang,-0.95,100.35,79.88,67,48,4.47,ID,1603151952
203,Ulcinj,41.93,19.22,45.45,81,0,1.12,ME,1603152292
204,Porosozero,62.72,32.73,30.85,98,100,8.32,RU,1603152292
205,Norman Wells,65.28,-126.83,21.2,67,40,16.11,CA,1603151956
206,Kushima,31.46,131.23,66.29,56,40,11.41,JP,1603152292
207,Akdepe,42.06,59.38,43.72,42,0,4.7,TM,1603152292
208,Kalāleh,37.38,55.49,66.36,22,0,3.4,IR,1603152293
209,Manga,11.66,-1.07,84.29,45,75,7.4,BF,1603152188
210,Boa Vista,2.82,-60.67,89.6,52,94,4.7,BR,1603152160
211,Bengkulu,-3.8,102.27,76.73,82,100,4.41,ID,1603151750
212,Hambantota,6.12,81.12,78.94,81,89,16.35,LK,1603152044
213,Moranbah,-22.0,148.05,83.41,40,0,4.81,AU,1603152244
214,Ostrovnoy,68.05,39.51,35.35,82,92,14.9,RU,1603152293
215,Belle Fourche,44.67,-103.85,31.42,100,90,9.17,US,1603152268
216,Ureki,42.0,41.78,62.6,93,90,13.87,GE,1603152294
217,Kampene,-3.6,26.67,68.65,97,93,0.38,CD,1603152294
218,Oussouye,12.48,-16.55,84.2,89,0,2.24,SN,1603152294
219,Avarua,-21.21,-159.78,78.8,78,28,6.93,CK,1603152041
220,Casablanca,33.59,-7.62,66.4,59,80,6.93,MA,1603152271
221,La Asuncion,11.03,-63.86,84.2,74,20,13.87,VE,1603152295
222,Dunedin,-45.87,170.5,54.0,64,48,17.0,NZ,1603152295
223,Praia,14.92,-23.51,80.6,65,83,9.17,CV,1603152295
224,Gladstone,-23.85,151.25,78.8,57,40,12.75,AU,1603152063
225,Uptar,59.75,150.92,21.52,98,98,4.18,RU,1603152295
226,Antipino,57.11,65.76,41.0,86,75,4.47,RU,1603152296
227,Pinsk,52.12,26.1,37.45,90,3,8.75,BY,1603152296
228,Tomatlán,19.93,-105.25,82.6,79,16,4.76,MX,1603152296
229,Pisco,-13.7,-76.22,65.25,72,0,17.22,PE,1603152296
230,Östersund,63.18,14.64,30.2,92,68,2.24,SE,1603152296
231,Belmonte,-15.86,-38.88,75.2,73,40,3.36,BR,1603152296
232,Cheremkhovo,53.16,103.07,24.51,92,37,7.4,RU,1603152097
233,Bosaso,11.28,49.18,80.02,40,0,6.33,SO,1603152297
234,Marawi,8.0,124.29,78.01,87,62,5.99,PH,1603151963
235,Laguna de Perlas,12.34,-83.67,82.4,83,75,4.7,NI,1603152297
236,Ulaangom,49.98,92.07,25.41,81,95,2.59,MN,1603152297
237,Budaun,28.05,79.12,68.63,50,0,3.67,IN,1603152297
238,Raahe,64.68,24.48,29.19,92,100,9.17,FI,1603152298
239,La Santisima Trinidad,-14.83,-64.9,79.07,74,69,2.06,BO,1603152298
240,Klaksvík,62.23,-6.59,37.4,93,11,5.82,FO,1603152033
241,Guerrero Negro,27.98,-114.06,78.89,55,0,16.13,MX,1603151939
242,Beringovskiy,63.05,179.32,39.58,80,82,11.41,RU,1603152298
243,Luganville,-15.53,167.17,80.6,78,75,10.09,VU,1603152299
244,Sulangan,11.14,123.72,83.12,76,100,10.18,PH,1603152299
245,São Filipe,14.9,-24.5,82.74,69,45,3.94,CV,1603152122
246,Châtellerault,46.8,0.53,58.46,62,99,14.99,FR,1603152123
247,Avanigadda,16.02,80.92,75.61,98,100,3.4,IN,1603152299
248,Tuatapere,-46.13,167.68,50.0,82,64,15.99,NZ,1603152046
249,Araouane,18.9,-3.53,87.21,13,0,8.68,ML,1603152299
250,Stillwater,36.12,-97.06,51.39,62,1,8.05,US,1603152300
251,Kashgar,39.45,75.98,51.8,32,0,11.18,CN,1603152300
252,Kahului,20.89,-156.47,84.99,43,40,11.41,US,1603152002
253,Pitimbu,-7.47,-34.81,75.2,83,20,5.82,BR,1603152295
254,Wilmington,34.23,-77.94,72.36,78,90,4.7,US,1603152067
255,Mountain Home,43.13,-115.69,63.75,28,1,5.82,US,1603152112
256,Mossamedes,-15.2,12.15,67.41,82,15,6.17,AO,1603152182
257,Avera,33.19,-82.53,66.4,82,1,3.36,US,1603151952
258,New Port Richey,28.24,-82.72,72.7,94,73,3.0,US,1603152301
259,Forsytheganj,52.63,29.73,37.31,87,0,9.46,BY,1603152301
260,Husavik,66.04,-17.34,32.0,85,90,3.44,IS,1603152100
261,Diamantino,-14.41,-56.45,74.62,79,100,3.58,BR,1603152302
262,Baie-Comeau,49.22,-68.15,42.8,100,90,3.65,CA,1603152019
263,Majene,-3.54,118.97,81.52,78,95,7.34,ID,1603152082
264,Broome,42.25,-75.83,54.45,93,90,8.05,US,1603152043
265,Northam,51.03,-4.22,55.31,92,100,15.99,GB,1603152303
266,Vila Velha,-20.33,-40.29,71.6,94,75,4.7,BR,1603152026
267,Port Hedland,-20.32,118.57,78.8,74,0,11.41,AU,1603152129
268,Churapcha,62.0,132.43,11.17,95,95,4.83,RU,1603152303
269,Santo Ângelo,-28.3,-54.26,73.99,63,0,1.01,BR,1603152304
270,Antonina,-25.43,-48.71,62.73,93,75,5.82,BR,1603152268
271,Bandrele,-12.91,45.19,75.2,83,0,2.24,YT,1603152304
272,Chicama,-7.84,-79.15,64.45,78,46,6.17,PE,1603152093
273,Makakilo City,21.35,-158.09,83.32,70,1,11.41,US,1603152076
274,Qom,34.64,50.88,53.17,41,0,2.17,IR,1603152304
275,Upernavik,72.79,-56.15,33.19,92,77,9.78,GL,1603151899
276,Umri,26.51,78.94,76.6,23,79,4.5,IN,1603152305
277,Tezu,27.92,96.17,71.2,86,96,2.89,IN,1603152305
278,Ende,-8.84,121.66,83.91,65,20,1.59,ID,1603152305
279,Seoul,37.57,126.98,50.72,100,1,1.57,KR,1603152094
280,Snezhnogorsk,69.19,33.25,28.4,100,40,2.24,RU,1603152306
281,Kamaishi,39.27,141.88,46.4,93,20,4.7,JP,1603152190
282,Richards Bay,-28.78,32.04,69.58,91,49,1.88,ZA,1603152306
283,Suntar,62.14,117.63,21.61,97,4,6.76,RU,1603152120
284,Saldanha,-33.01,17.94,57.2,76,93,2.24,ZA,1603152139
285,Zamora,-4.07,-78.96,68.58,72,72,1.1,EC,1603152306
286,Popondetta,-8.75,148.25,88.0,55,38,3.76,PG,1603152307
287,Naze,28.37,129.48,78.8,78,75,20.8,JP,1603151939
288,Alofi,-19.06,-169.92,78.8,69,75,17.22,NU,1603152307
289,Cap Malheureux,-19.98,57.61,71.01,79,7,3.0,MU,1603152307
290,Santa Vitória do Palmar,-33.52,-53.37,67.55,76,0,6.35,BR,1603152017
291,Paraíba do Sul,-22.16,-43.29,66.97,86,98,4.41,BR,1603152308
292,Tual,-5.67,132.75,79.77,83,100,7.67,ID,1603152308
293,Vao,-22.67,167.48,73.4,77,47,18.52,NC,1603151907
294,La Romana,18.43,-68.97,82.4,88,40,6.71,DO,1603152308
295,Haines Junction,60.75,-137.51,30.4,75,100,0.83,CA,1603152119
296,Isla Mujeres,21.23,-86.73,84.2,70,75,10.29,MX,1603152309
297,Mikkeli,61.69,27.27,33.01,97,97,4.0,FI,1603152309
298,Monte Azul,-15.15,-42.87,73.26,69,91,12.03,BR,1603152309
299,Safi,32.3,-9.24,69.03,63,87,8.55,MA,1603152301
300,Ossora,59.24,163.07,39.96,78,100,3.09,RU,1603152070
301,Meadow Lake,34.8,-106.54,79.11,9,1,10.29,US,1603152129
302,Mirpur Sakro,24.55,67.63,77.0,53,0,4.7,PK,1603152310
303,Datong,40.09,113.29,47.61,46,97,5.64,CN,1603152310
304,Clyde River,70.47,-68.59,33.8,80,90,23.04,CA,1603152108
305,Kuytun,54.34,101.5,24.71,89,52,6.62,RU,1603152310
306,Kichera,55.94,110.1,25.05,87,100,4.38,RU,1603152311
307,Kainantu,-6.29,145.87,73.08,71,57,3.38,PG,1603152311
308,Zárate,-34.1,-59.03,61.0,98,83,4.0,AR,1603152311
309,Cayenne,4.93,-52.33,78.8,94,20,1.12,GF,1603152311
310,Māngrol,21.12,70.12,82.15,81,59,5.37,IN,1603152311
311,Maningrida,-12.07,134.27,86.13,53,32,3.87,AU,1603152312
312,Thinadhoo,0.53,72.93,82.8,77,98,13.96,MV,1603152093
313,Najrān,17.49,44.13,60.8,26,0,2.24,SA,1603152312
314,Reyes,-14.32,-67.38,83.3,58,33,2.86,BO,1603152312
315,Gombe,10.29,11.17,76.44,68,18,6.93,NG,1603152312
316,Codrington,-38.27,141.97,56.12,74,51,0.89,AU,1603152091
317,Denpasar,-8.65,115.22,82.4,88,20,12.75,ID,1603152313
318,Kirovskiy,45.09,133.51,46.0,65,0,4.45,RU,1603151940
319,Lokoja,7.8,6.74,75.74,89,86,3.44,NG,1603152313
320,Bubaque,11.28,-15.83,82.51,88,11,9.33,GW,1603152175
321,Nishihara,26.18,127.76,79.0,69,20,14.99,JP,1603152131
322,São Francisco de Assis,-29.55,-55.13,76.33,55,0,5.88,BR,1603152313
323,Pendleton,45.67,-118.79,61.16,45,1,28.86,US,1603152314
324,Henties Bay,-22.12,14.28,57.0,88,0,1.99,NA,1603152107
325,Aquiraz,-3.9,-38.39,80.6,78,40,12.75,BR,1603152314
326,Laas,46.62,10.7,40.3,54,61,3.36,IT,1603152153
327,Morón,-34.65,-58.62,65.52,94,90,14.99,AR,1603152315
328,Beaverlodge,55.22,-119.44,26.6,79,90,6.93,CA,1603152315
329,Ixtapa,20.7,-105.2,86.0,79,75,10.29,MX,1603152315
330,Grindavik,63.84,-22.43,35.6,70,40,9.17,IS,1603152186
331,Narrabri,-30.32,149.78,71.6,49,40,5.82,AU,1603152315
332,Bayjī,34.93,43.49,69.53,26,0,7.05,IQ,1603152316
333,Rio Grande,-32.03,-52.1,67.37,82,45,8.93,BR,1603152046
334,Noyabrsk,63.2,75.45,27.81,99,67,2.44,RU,1603152030
335,Krasnovishersk,60.41,57.08,32.79,96,94,4.52,RU,1603152316
336,Gamba,-2.65,10.0,76.71,89,100,6.96,GA,1603152118
337,Plácido de Castro,-10.34,-67.19,71.38,95,83,1.48,BR,1603152316
338,Naviraí,-23.07,-54.19,75.04,65,10,0.45,BR,1603152317
339,Abnūb,27.27,31.15,75.2,60,0,6.93,EG,1603152317
340,Salta,-24.79,-65.41,87.8,25,40,9.17,AR,1603152035
341,Aleksandrov Gay,50.15,48.57,47.16,64,100,10.29,RU,1603152317
342,Dhārchula,29.85,80.53,56.77,38,0,4.63,IN,1603152317
343,Mnogovershinnyy,53.94,139.92,29.55,84,29,18.21,RU,1603151986
344,Colac,-38.33,143.58,51.01,98,4,3.38,AU,1603152318
345,Mistelbach,48.57,16.58,43.5,86,52,4.52,AT,1603152318
346,Vitim,59.45,112.56,26.62,94,93,10.71,RU,1603152318
347,Nabīnagar,23.89,90.97,82.4,83,20,4.16,BD,1603152318
348,Charleville-Mézières,49.77,4.72,48.43,70,82,12.75,FR,1603152319
349,Lüderitz,-26.65,15.16,58.28,71,0,22.97,NA,1603151899
350,Loudi,27.73,111.99,59.61,76,97,3.44,CN,1603152319
351,Camocim,-2.9,-40.84,78.53,78,15,14.41,BR,1603152319
352,Ouahigouya,13.58,-2.42,85.28,39,10,6.62,BF,1603152047
353,Sambava,-14.27,50.17,74.79,73,88,12.57,MG,1603152319
354,Tura,25.52,90.22,71.1,90,0,3.36,IN,1603152320
355,Hobyo,5.35,48.53,79.84,77,14,15.03,SO,1603152320
356,Asău,46.43,26.4,37.98,93,0,2.24,RO,1603152083
357,Tegul'det,57.31,88.17,31.42,98,100,11.32,RU,1603152320
358,Sokna,60.24,9.92,31.51,85,100,1.45,NO,1603152320
359,Alghero,40.56,8.32,50.0,93,40,2.24,IT,1603152320
360,Beloha,-25.17,45.05,62.96,91,0,2.3,MG,1603152321
361,Kāndla,23.03,70.22,84.92,68,27,8.39,IN,1603152321
362,Ryōtsu-minato,38.08,138.43,57.2,82,20,9.17,JP,1603152321
363,Warrington,53.39,-2.58,52.16,76,100,11.41,GB,1603152321
364,Homer,59.64,-151.55,38.91,67,76,4.0,US,1603152322
365,Cambrils,41.07,1.05,65.5,77,90,5.82,ES,1603152322
366,Charleston,32.78,-79.93,70.45,83,20,4.7,US,1603152068
367,Fonte Boa,-2.5,-66.27,76.39,89,79,1.57,BR,1603152322
368,Otradnoye,59.78,30.82,35.19,92,90,13.42,RU,1603152323
369,Yangi Marg`ilon,40.43,71.72,50.0,53,0,6.93,UZ,1603152323
370,Qingdao,36.1,120.37,56.66,93,22,2.24,CN,1603152323
371,Ancud,-41.87,-73.82,47.16,75,20,5.82,CL,1603151982
372,Bud,39.45,-86.18,48.76,100,90,3.36,US,1603152323
373,Puerto Limón,10.0,-83.03,84.2,74,75,9.17,CR,1603152323
374,Nipawin,53.37,-104.0,26.6,58,75,8.05,CA,1603152171
375,Labuhan,-6.88,112.21,80.49,75,70,6.73,ID,1603152053
376,Yerofey Pavlovich,53.97,121.97,27.25,95,100,8.1,RU,1603152324
377,Lixouri,38.2,20.43,65.44,65,0,4.85,GR,1603152324
378,Ugoofaaru,5.67,73.0,81.45,81,3,12.68,MV,1603152142
379,Baharly,38.44,57.43,59.43,27,0,1.59,TM,1603152324
380,Moyale,3.52,39.06,73.27,60,85,4.54,KE,1603152324
381,Scarborough,54.28,-0.4,50.63,83,100,5.99,GB,1603152207
382,Sabha,27.04,14.43,69.37,64,0,17.9,LY,1603151968
383,Synya,65.37,58.04,24.71,97,98,2.68,RU,1603152325
384,Auki,-8.77,160.7,87.66,63,19,3.4,SB,1603152325
385,Kyra,49.58,111.98,33.35,85,100,13.0,RU,1603152325
386,Ketchikan,55.34,-131.65,46.02,100,90,4.7,US,1603152326
387,Aracruz,-19.82,-40.27,71.6,94,75,4.7,BR,1603152326
388,Sorong,-0.88,131.25,80.17,79,100,8.39,ID,1603152326
389,San Luis,-33.3,-66.34,58.35,38,5,26.96,AR,1603152326
390,Hurricane,37.18,-113.29,84.65,12,0,7.0,US,1603152196
391,Hanyang,32.14,105.51,59.0,84,100,2.91,CN,1603152326
392,Santa Maria,-29.68,-53.81,73.8,62,1,4.92,BR,1603152187
393,Kharan,28.58,65.42,55.69,30,0,5.55,PK,1603152084
394,Ca Mau,9.18,105.15,79.45,86,96,2.06,VN,1603152062
395,Chernyshevskiy,63.01,112.47,19.6,98,85,4.85,RU,1603152158
396,Santa Cruz das Palmeiras,-21.83,-47.25,65.53,92,100,8.46,BR,1603152185
397,Byron Bay,-28.65,153.62,71.2,64,49,13.87,AU,1603152073
398,Brownfield,33.18,-102.27,67.5,56,0,3.0,US,1603152328
399,Killybegs,54.63,-8.45,51.01,94,100,8.99,IE,1603152328
400,Boende,-0.22,20.87,71.96,98,100,3.42,CD,1603152328
401,Ayan,56.45,138.17,29.37,80,34,13.69,RU,1603152329
402,Flinders,-34.58,150.86,66.15,69,68,1.99,AU,1603152037
403,Vostok,46.49,135.88,38.77,71,0,2.59,RU,1603152158
404,Saint-Augustin,51.23,-58.65,44.24,84,38,10.8,CA,1603152299
405,Havøysund,71.0,24.66,33.8,100,75,8.05,NO,1603152057
406,Alta Floresta,-9.88,-56.09,72.81,94,99,4.14,BR,1603152329
407,Mulatupo,8.95,-77.77,78.19,83,100,11.39,PA,1603152330
408,Berlevåg,70.86,29.09,39.11,75,100,15.17,NO,1603152086
409,Nan,18.83,100.67,71.6,94,75,1.14,TH,1603152330
410,San Policarpo,12.18,125.51,80.58,83,100,10.09,PH,1603152184
411,Barnsley,53.55,-1.48,50.04,84,100,1.99,GB,1603152330
412,Atambua,-9.11,124.89,85.3,47,0,2.15,ID,1603152330
413,Teguise,29.06,-13.56,69.8,83,76,6.24,ES,1603152330
414,Koshurnikovo,54.17,93.3,26.24,95,100,3.85,RU,1603152081
415,San Quintín,30.48,-115.95,74.23,65,0,20.36,MX,1603152175
416,Ulverstone,-41.15,146.17,56.23,70,50,4.85,AU,1603152331
417,Yārāda,17.65,83.27,78.8,100,75,2.24,IN,1603152331
418,Eydhafushi,5.1,73.07,82.11,78,49,13.85,MV,1603152331
419,Taboga,46.27,13.11,52.93,92,13,4.14,IT,1603152331
420,Beijing,39.91,116.4,54.84,68,58,0.72,CN,1603152249
421,San Patricio,28.02,-97.52,82.33,70,20,19.46,US,1603151899
422,Nizhniy Kuranakh,58.84,125.49,28.87,97,100,5.75,RU,1603152332
423,Wucheng,29.6,118.17,62.01,88,3,3.47,CN,1603152332
424,Kitimat,54.05,-128.65,46.0,89,91,3.42,CA,1603152332
425,Tucuruí,-3.77,-49.67,79.39,71,94,4.18,BR,1603152332
426,Victoria Point,-27.58,153.3,77.23,54,23,8.99,AU,1603152333
427,Mahibadhoo,3.78,72.97,82.15,76,100,11.72,MV,1603152159
428,Margate,51.38,1.39,52.88,66,98,7.0,GB,1603152333
429,Krishnarajasagara,12.41,76.58,67.37,96,88,4.09,IN,1603152333
430,Shache,38.42,77.24,40.23,65,0,3.29,CN,1603152333
431,Kindu,-2.95,25.95,69.98,86,96,0.29,CD,1603152334
432,Deniliquin,-35.53,144.97,62.85,54,0,4.76,AU,1603152334
433,Quelimane,-17.88,36.89,69.04,96,1,3.49,MZ,1603152334
434,Sladkovo,55.53,70.34,44.28,89,98,7.0,RU,1603152334
435,Buraidah,26.33,43.98,62.6,36,0,3.36,SA,1603152123
436,Mae Hong Son,19.3,97.97,71.94,79,97,1.74,TH,1603152125
437,Deputatsky,69.3,139.9,9.37,95,97,4.09,RU,1603151966
438,Bandarbeyla,9.49,50.81,77.52,73,0,6.11,SO,1603152181
439,Tabuk,17.42,121.44,75.74,89,93,12.97,PH,1603152016
440,Salinópolis,-0.61,-47.36,80.83,80,14,13.06,BR,1603152335
441,Stulovo,58.72,50.14,34.16,96,77,5.64,RU,1603152335
442,Redmond,47.67,-122.12,51.58,95,99,5.41,US,1603151616
443,Kathu,7.92,98.33,80.87,94,20,2.08,TH,1603152336
444,Tahe,52.33,124.73,33.53,91,85,2.24,CN,1603152336
445,Barcelos,41.54,-8.62,60.82,100,90,10.29,PT,1603152098
446,Anchorage,61.22,-149.9,36.12,64,20,4.7,US,1603152124
447,Kirovsk,48.64,38.64,42.57,80,0,6.93,UA,1603152336
448,Sola,-13.88,167.55,80.17,78,55,16.69,VU,1603152171
449,Agalatovo,60.22,30.27,34.32,85,69,8.59,RU,1603152337
450,Skibotn,69.39,20.27,24.8,92,0,6.93,NO,1603152337
451,Dudinka,69.41,86.18,14.0,92,90,6.71,RU,1603152337
452,Kimbe,-5.55,150.14,78.76,84,86,2.64,PG,1603152337
453,Saint-Pierre,-21.34,55.48,67.32,64,2,6.93,RE,1603152101
454,Bitung,1.45,125.18,84.2,74,20,2.24,ID,1603152338
455,Oktyabr'skiy,54.48,53.47,39.88,85,68,3.62,RU,1603152338
456,Katherine,-14.47,132.27,87.8,55,20,12.75,AU,1603152338
457,Noumea,-22.28,166.46,82.83,51,33,10.29,NC,1603152162
458,Kilindoni,-7.91,39.67,78.04,75,0,11.18,TZ,1603152338
459,Broken Hill,-31.95,141.43,64.4,36,52,11.41,AU,1603152143
460,Pipirig,47.25,26.07,39.47,84,0,3.85,RO,1603152339
461,Pervomayskoye,43.92,46.71,59.45,73,47,12.01,RU,1603152339
462,Solwezi,-12.17,26.39,62.49,38,10,2.8,ZM,1603152339
463,Raja,8.46,25.68,70.05,90,1,1.63,SS,1603152340
464,Pilar,-9.6,-35.96,73.4,88,58,4.7,BR,1603152340
465,Ambon City,-3.7,128.18,82.4,83,40,2.24,ID,1603152340
466,Talara,-4.58,-81.27,64.67,86,82,14.36,PE,1603152340
467,Pozo Colorado,-23.49,-58.8,84.16,48,2,1.81,PY,1603152340
468,Jūybār,36.64,52.91,65.77,31,0,3.42,IR,1603152340
469,Presidencia Roque Sáenz Peña,-26.79,-60.44,85.78,48,18,7.65,AR,1603152069
470,Shimoda,34.67,138.95,62.19,63,75,20.8,JP,1603152341
471,Utevka,52.9,50.95,41.49,68,100,0.69,RU,1603152341
472,Minggang,32.46,114.05,58.03,66,71,2.57,CN,1603152341
473,Galveston,29.37,-94.97,78.64,78,1,13.87,US,1603152341
474,Zdvinsk,54.7,78.66,40.08,67,100,11.01,RU,1603152341
475,Hanko,59.83,22.95,35.62,77,70,1.99,FI,1603152342
476,Vicuña,-30.03,-70.71,66.0,40,0,1.81,CL,1603151899
477,Eufaula,31.89,-85.15,69.67,86,0,4.85,US,1603152342
478,Nara,34.69,135.8,55.4,100,75,1.12,JP,1603151915
479,Chake Chake,-5.25,39.77,75.65,85,3,7.58,TZ,1603152342
480,Ucluelet,48.93,-125.55,56.43,76,40,13.87,CA,1603152099
481,Marquette,46.53,-87.63,34.25,73,100,0.96,US,1603152343
482,Grand Gaube,-20.01,57.66,71.01,79,16,3.0,MU,1603152343
483,Pacific Grove,36.62,-121.92,70.92,49,20,4.7,US,1603152085
484,Ruska Poliana,49.42,31.92,41.25,87,0,7.11,UA,1603152343
485,Mayo,38.89,-76.51,60.64,92,90,9.73,US,1603152343
486,Katsuura,35.13,140.3,61.7,67,94,12.75,JP,1603152343
487,Itarema,-2.92,-39.92,79.02,79,6,18.19,BR,1603152343
488,Nuevo México,20.75,-103.43,84.2,23,40,3.36,MX,1603152344
489,Petrov Val,50.14,45.21,47.16,64,100,8.79,RU,1603152344
490,Riyadh,24.69,46.72,66.2,25,0,4.7,SA,1603152344
491,Mount Isa,-20.73,139.5,89.6,12,21,10.29,AU,1603152139
492,Karratha,-20.74,116.85,74.32,50,0,3.69,AU,1603151791
493,Caçapava do Sul,-30.51,-53.49,65.75,80,0,2.44,BR,1603152345
494,Río Gallegos,-51.62,-69.22,44.6,45,40,31.09,AR,1603152345
495,Urusha,54.05,122.9,26.17,95,100,6.69,RU,1603152345
496,Skjervøy,70.03,20.97,38.08,71,28,5.41,NO,1603152345
497,Murgab,37.5,61.97,51.8,50,0,2.28,TM,1603152123
498,Hailun,47.45,126.93,43.86,67,67,13.96,CN,1603152345
499,Chimbote,-9.09,-78.58,62.26,87,64,7.18,PE,1603152345
500,Nabire,-3.37,135.48,84.67,65,100,1.25,ID,1603152346
501,Iquique,-20.22,-70.14,62.6,77,90,11.41,CL,1603152346
502,Kirkwall,58.98,-2.96,50.0,100,100,6.93,GB,1603152346
503,Kismayo,-0.36,42.55,78.8,81,18,12.68,SO,1603152346
504,Chengde,40.97,117.94,49.03,49,20,1.52,CN,1603152346
505,Tanout,14.97,8.89,85.73,13,0,8.88,NE,1603152346
506,Parkes,-33.13,148.18,77.0,35,0,3.0,AU,1603152347
507,West Bay,19.37,-81.42,81.5,78,20,10.29,KY,1603152347
508,Isangel,-19.55,169.27,80.6,65,75,11.41,VU,1603152041
509,Comodoro Rivadavia,-45.87,-67.5,57.2,35,65,9.17,AR,1603152094
510,Kota Kinabalu,5.97,116.07,77.0,88,20,4.7,MY,1603152347
511,Mut,36.64,33.44,69.39,47,100,1.83,TR,1603152347
512,Kot Samaba,28.55,70.47,67.8,21,0,2.64,PK,1603152348
513,Waingapu,-9.66,120.26,82.92,68,45,7.11,ID,1603152161
514,Bilma,18.69,12.92,79.83,16,0,4.88,NE,1603152348
515,Pirovskoye,57.63,92.27,29.86,97,100,11.14,RU,1603152348
516,Ahipara,-35.17,173.17,65.26,65,99,10.18,NZ,1603152348
517,Gweru,-19.45,29.82,62.64,36,0,4.36,ZW,1603152349
518,Balaipungut,1.05,101.28,73.4,94,20,2.04,ID,1603152142
519,Swellendam,-34.02,20.44,59.0,72,100,11.41,ZA,1603152349
520,Muri,23.37,85.87,71.6,88,20,2.68,IN,1603152349
521,Šahy,48.07,18.95,48.92,83,95,1.01,SK,1603152349
522,Trairi,-3.28,-39.27,78.96,78,27,12.57,BR,1603152350
523,Okhotsk,59.38,143.3,22.69,79,15,24.34,RU,1603152036
524,Chagoda,59.16,35.33,34.0,95,100,7.09,RU,1603152350
525,Burnie,-41.07,145.92,55.99,62,33,4.0,AU,1603152096
526,Conceição da Barra,-18.59,-39.73,73.54,82,97,7.63,BR,1603152350
527,Dakar,14.69,-17.44,78.8,94,0,7.96,SN,1603152124
528,Hammerfest,70.66,23.68,33.8,100,75,8.05,NO,1603152350
529,Tubualá,9.52,-79.03,75.13,94,90,4.7,PA,1603152351
530,Mitú,1.2,-70.17,74.75,92,74,2.3,CO,1603152188
531,Nantucket,41.28,-70.1,51.8,93,1,3.36,US,1603152132
532,Walvis Bay,-22.96,14.51,56.14,82,0,4.7,NA,1603152151
533,Kiama,-34.68,150.87,65.19,68,70,1.01,AU,1603152351
534,KwaDukuza,-29.33,31.29,68.0,88,75,8.05,ZA,1603152351
535,Dzilam González,21.28,-88.93,76.62,89,7,5.97,MX,1603152352
536,Honiara,-9.43,159.95,86.0,74,20,5.82,SB,1603152352
537,Caniço,32.63,-16.85,67.19,88,75,5.82,PT,1603152352
538,Wanning,18.8,110.4,76.8,87,99,15.17,CN,1603152117
539,Luwuk,-0.95,122.79,79.47,67,71,5.66,ID,1603152353
540,Bereda,43.27,-7.54,58.89,90,95,10.0,ES,1603151957
541,Agüimes,27.91,-15.45,73.89,83,38,5.82,ES,1603152353
542,Turbat,26.0,63.04,66.2,23,0,6.69,PK,1603152353
543,Wajid,3.81,43.25,74.73,76,97,15.55,SO,1603152353
544,Meulaboh,4.14,96.13,76.84,81,78,4.03,ID,1603152075
545,Nouadhibou,20.93,-17.03,80.6,51,28,17.22,MR,1603152085
546,Houndé,11.5,-3.52,79.11,60,1,5.77,BF,1603152354
547,La Grande,45.32,-118.09,63.57,34,1,10.29,US,1603152354
548,Port-Cartier,50.03,-66.87,41.0,100,90,6.93,CA,1603152269
549,Marsh Harbour,26.54,-77.06,81.25,75,100,18.81,BS,1603152015
550,San Jose,37.34,-121.89,83.89,26,1,4.7,US,1603152342
551,San Cristobal,7.77,-72.22,86.0,51,40,10.29,VE,1603152152
552,Abu Kamal,34.45,40.92,65.34,28,0,3.69,SY,1603152355
