City_ID,City,Lat,Lon,Max Temp,Humidity,Cloudiness,Windspeed,Country,Date
0,Nikolskoye,59.7,30.79,37.4,93,90,8.95,RU,1603308261
1,Waipawa,-41.41,175.52,57.0,76,8,11.41,NZ,1603308530
2,East London,-33.02,27.91,66.2,77,2,11.41,ZA,1603308530
3,Kuching,1.55,110.33,75.2,94,40,2.24,MY,1603308531
4,Rikitea,-23.12,-134.97,73.87,66,5,8.52,PF,1603308531
5,Mataura,-46.19,168.86,48.0,79,99,3.0,NZ,1603308394
6,Vaini,-21.2,-175.2,73.4,78,75,8.05,TO,1603308412
7,Ushuaia,-54.8,-68.3,55.4,43,75,5.82,AR,1603308531
8,Lagoa,39.05,-27.98,63.32,68,0,20.47,PT,1603308532
9,Kumul,42.8,93.45,49.77,42,0,5.73,CN,1603308249
10,Bluff,-46.6,168.33,48.0,79,100,3.0,NZ,1603308532
11,Punta Arenas,-53.15,-70.92,50.0,43,90,10.29,CL,1603308250
12,Severo-Kuril'sk,50.68,156.12,41.43,72,86,18.39,RU,1603308532
13,Qaanaaq,77.48,-69.36,18.61,81,100,6.53,GL,1603308532
14,Cidreira,-30.18,-50.21,67.24,88,100,14.99,BR,1603308255
15,Río Gallegos,-51.62,-69.22,62.6,27,98,6.93,AR,1603308533
16,Solnechnyy,50.72,136.63,39.51,90,100,5.91,RU,1603308533
17,Aksu,41.12,80.26,48.18,43,0,2.35,CN,1603308533
18,Khovd,48.01,91.64,30.29,86,0,0.89,MN,1603308533
19,Maumere,-8.62,122.21,79.7,74,5,3.51,ID,1603308533
20,Ostrovnoy,68.05,39.51,30.69,97,90,7.72,RU,1603308432
21,Srednekolymsk,67.45,153.68,13.01,92,24,5.77,RU,1603308534
22,Carnarvon,-24.87,113.63,66.2,72,90,13.87,AU,1603308534
23,Flin Flon,54.77,-101.86,28.4,74,75,5.82,CA,1603308534
24,Nizwá,22.93,57.53,69.37,23,4,4.23,OM,1603308534
25,George Town,5.41,100.34,82.0,88,40,3.36,MY,1603308347
26,Talaya,61.38,152.75,15.06,83,0,4.97,RU,1603308535
27,Avarua,-21.21,-159.78,77.0,83,48,4.7,CK,1603308249
28,Bambous Virieux,-20.34,57.76,75.2,73,40,10.29,MU,1603308451
29,Santa Cruz de la Sierra,-17.8,-63.17,90.66,41,89,3.87,BO,1603308512
30,Bredasdorp,-34.53,20.04,53.6,93,0,1.12,ZA,1603308535
31,Faanui,-16.48,-151.75,78.39,80,30,12.82,PF,1603308535
32,Atar,20.52,-13.05,95.0,28,97,6.93,MR,1603308536
33,Lebu,-37.62,-73.65,52.86,68,0,17.38,CL,1603308440
34,Korla,41.76,86.15,46.22,48,0,0.85,CN,1603308536
35,Saskylakh,71.92,114.08,8.22,94,91,4.0,RU,1603308256
36,Clyde River,70.47,-68.59,21.2,73,1,4.7,CA,1603308272
37,Griffith,41.53,-87.42,55.99,66,1,5.82,US,1603308536
38,Pagudpud,18.56,120.79,77.0,100,75,1.12,PH,1603308536
39,Norman Wells,65.28,-126.83,23.0,79,90,20.8,CA,1603308269
40,Quatre Cocos,-20.21,57.76,75.2,73,40,10.29,MU,1603308537
41,Kiama,-34.68,150.87,61.0,88,96,1.01,AU,1603308537
42,Leningradskiy,69.38,178.42,33.44,89,100,11.14,RU,1603308537
43,Codrington,-38.27,141.97,43.03,91,6,5.44,AU,1603308537
44,Pevek,69.7,170.31,29.3,99,100,2.06,RU,1603308490
45,Longyearbyen,78.22,15.64,17.6,78,20,3.36,SJ,1603308538
46,Knyaze-Volkonskoye,48.46,135.46,48.2,93,40,4.47,RU,1603308538
47,Hilo,19.73,-155.09,80.6,57,1,3.36,US,1603308496
48,Khatanga,71.97,102.5,4.37,92,0,6.44,RU,1603308270
49,Port Alfred,-33.59,26.89,65.59,85,0,14.36,ZA,1603308253
50,Dwārka,22.24,68.97,82.87,66,0,8.32,IN,1603308538
51,Östersund,63.18,14.64,33.8,100,100,2.24,SE,1603308538
52,Barrow,71.29,-156.79,33.8,98,90,13.87,US,1603308442
53,Busselton,-33.65,115.33,51.01,70,3,10.89,AU,1603308408
54,Port Elizabeth,-33.92,25.57,62.6,88,0,6.93,ZA,1603308539
55,Sühbaatar,50.23,106.21,27.64,82,0,4.21,MN,1603308539
56,Hobart,-42.88,147.33,51.8,93,75,4.7,AU,1603308245
57,Kapaa,22.08,-159.32,77.0,83,40,5.82,US,1603308251
58,Kakogawa,34.77,134.85,66.2,63,100,14.99,JP,1603308539
59,Mackenzie,55.3,-123.17,26.6,45,90,5.82,CA,1603308540
60,Tasiilaq,65.61,-37.64,30.2,80,75,3.24,GL,1603308540
61,Tiksi,71.69,128.87,10.27,93,100,6.29,RU,1603308540
62,Omaha,41.26,-95.94,50.0,70,90,6.93,US,1603308345
63,Mossamedes,-15.2,12.15,70.41,80,100,5.79,AO,1603308540
64,Cape Town,-33.93,18.42,60.01,82,0,16.11,ZA,1603308403
65,Bay Roberts,47.6,-53.26,55.99,76,75,10.29,CA,1603308541
66,Richards Bay,-28.78,32.04,65.19,77,81,3.6,ZA,1603308541
67,Tuatapere,-46.13,167.68,48.0,79,99,3.0,NZ,1603308541
68,Hong Kong,22.29,114.16,75.0,66,100,1.01,HK,1603308445
69,High Prairie,55.43,-116.49,20.14,86,97,9.53,CA,1603308541
70,Lavumisa,-27.31,31.89,63.88,82,69,2.71,SZ,1603308541
71,Mahébourg,-20.41,57.7,75.2,73,40,10.29,MU,1603308542
72,Arraial do Cabo,-22.97,-42.03,78.8,74,20,18.34,BR,1603308542
73,Kavaratti,10.57,72.64,81.05,78,100,14.92,IN,1603308455
74,Vao,-22.67,167.48,72.99,83,0,13.76,NC,1603308425
75,Kalmunai,7.42,81.82,80.08,76,0,1.9,LK,1603308542
76,Castro,-24.79,-50.01,78.08,50,11,8.52,BR,1603308335
77,Fortuna,40.6,-124.16,60.01,87,75,12.75,US,1603308269
78,Saint-Philippe,-21.36,55.77,75.2,69,31,16.11,RE,1603308277
79,Roebourne,-20.78,117.13,68.02,56,100,12.1,AU,1603308543
80,Coruripe,-10.13,-36.18,81.14,71,0,11.83,BR,1603308543
81,Ponnāni,10.77,75.93,77.0,83,40,5.75,IN,1603308543
82,Saint Paul Harbor,57.79,-152.41,42.8,56,1,8.05,US,1603308543
83,Yellowknife,62.46,-114.35,25.0,85,90,11.41,CA,1603308544
84,Coquimbo,-29.95,-71.34,59.0,72,20,12.75,CL,1603308544
85,Atuona,-9.8,-139.03,77.43,70,0,17.13,PF,1603308249
86,Butaritari,3.07,172.79,82.47,71,35,8.79,KI,1603308544
87,Paamiut,61.99,-49.67,35.08,83,100,29.53,GL,1603308544
88,Matara,5.95,80.54,79.11,85,13,11.05,LK,1603308544
89,Kushmurun,52.45,64.63,39.24,70,100,8.84,KZ,1603308545
90,Nanortalik,60.14,-45.24,33.78,88,100,13.42,GL,1603308258
91,Souillac,-20.52,57.52,75.2,73,40,10.29,MU,1603308460
92,San Ramon,37.78,-121.98,87.01,21,1,6.93,US,1603308423
93,Namatanai,-3.67,152.43,79.57,78,96,6.35,PG,1603308545
94,Mar del Plata,-38.0,-57.56,55.4,66,0,17.22,AR,1603308249
95,Svobodnyy,51.4,128.13,30.2,95,100,14.7,RU,1603308546
96,Pangnirtung,66.15,-65.71,28.4,86,90,3.36,CA,1603308546
97,Zhigansk,66.77,123.37,15.04,97,100,3.36,RU,1603308300
98,Jamestown,42.1,-79.24,60.01,93,90,17.22,US,1603308250
99,Okha,53.57,142.95,45.14,91,100,12.41,RU,1603308546
100,Esperance,-33.87,121.9,57.2,100,90,12.75,AU,1603308547
101,Fort Nelson,58.81,-122.7,21.2,62,75,9.17,CA,1603308547
102,Hithadhoo,-0.6,73.08,82.76,76,4,14.83,MV,1603308276
103,Aitape,-3.14,142.35,77.41,81,100,4.34,PG,1603308547
104,Tabuk,17.42,121.44,73.58,88,100,4.81,PH,1603308548
105,Saraland,30.82,-88.07,84.2,62,40,4.7,US,1603308467
106,Haines Junction,60.75,-137.51,23.61,83,4,2.82,CA,1603308251
107,Klaksvík,62.23,-6.59,37.4,86,47,8.05,FO,1603308548
108,Mandalgovi,45.76,106.27,23.02,87,0,5.48,MN,1603308548
109,Mattru,7.62,-11.83,75.69,95,100,3.27,SL,1603308549
110,Nome,64.5,-165.41,39.2,93,75,3.36,US,1603308549
111,Albany,42.6,-73.97,73.99,72,1,8.19,US,1603308549
112,Sarangani,5.4,125.46,83.23,75,100,6.67,PH,1603308549
113,Joshīmath,30.57,79.57,50.99,47,37,1.25,IN,1603308549
114,Takoradze,4.88,-1.76,78.24,90,70,9.28,GH,1603308550
115,Inhambane,-23.86,35.38,73.4,88,20,4.7,MZ,1603308550
116,Mount Isa,-20.73,139.5,71.6,46,21,8.93,AU,1603308497
117,Grand Gaube,-20.01,57.66,75.0,71,34,5.99,MU,1603308296
118,Petropavlovsk-Kamchatskiy,53.05,158.65,37.4,44,0,17.9,RU,1603308263
119,Vardø,70.37,31.11,30.2,92,75,12.75,NO,1603308550
120,La Ronge,55.1,-105.28,26.6,79,75,9.17,CA,1603308551
121,Port Hardy,50.7,-127.42,50.0,71,20,9.17,CA,1603308551
122,Ulaangom,49.98,92.07,26.94,93,12,2.77,MN,1603308451
123,Bodhan,18.67,77.9,73.8,86,100,1.81,IN,1603308551
124,San Patricio,28.02,-97.52,88.0,58,1,13.87,US,1603308551
125,Opuwo,-18.06,13.84,67.82,44,0,10.63,NA,1603308551
126,Bethel,41.37,-73.41,68.0,88,90,5.82,US,1603308552
127,Ndola,-12.96,28.64,74.61,31,10,7.05,ZM,1603308552
128,Lakatoro,-16.1,167.42,73.4,100,75,8.39,VU,1603308552
129,Nelson Bay,-32.72,152.15,57.0,93,100,7.43,AU,1603308552
130,Pokaran,26.92,71.92,80.91,14,0,5.01,IN,1603308553
131,Ponta do Sol,32.67,-17.1,66.2,55,40,10.29,PT,1603308553
132,Lüderitz,-26.65,15.16,66.81,47,0,4.12,NA,1603308553
133,Ancud,-41.87,-73.82,57.2,47,0,9.17,CL,1603308553
134,Tarauacá,-8.16,-70.77,89.74,50,100,4.12,BR,1603308553
135,Thompson,55.74,-97.86,30.2,68,90,3.36,CA,1603308255
136,Labuhan,-6.88,112.21,80.01,80,85,5.26,ID,1603308487
137,New Norfolk,-42.78,147.06,48.0,85,87,2.33,AU,1603308554
138,Yārāda,17.65,83.27,80.6,94,90,2.24,IN,1603308554
139,Vestmannaeyjar,63.44,-20.27,39.2,86,75,24.16,IS,1603308554
140,Hermanus,-34.42,19.23,52.0,90,0,5.53,ZA,1603308432
141,Siocon,7.71,122.14,78.46,86,99,5.17,PH,1603308555
142,Sojītra,22.55,72.72,84.2,66,5,4.7,IN,1603308555
143,Havelock,34.88,-76.9,80.6,57,40,10.29,US,1603308555
144,Bolkhov,53.44,36.0,41.09,94,100,9.22,RU,1603308555
145,Ternuvate,47.83,36.13,51.8,66,75,6.71,UA,1603308556
146,Bosobolo,4.18,19.9,71.01,96,100,1.07,CD,1603308556
147,San Carlos,9.66,-68.58,86.36,68,49,5.37,VE,1603308468
148,Guayaramerín,-10.84,-65.36,84.63,57,93,2.8,BO,1603308556
149,Fare,-16.7,-151.02,79.16,76,0,12.86,PF,1603308556
150,Altay,47.87,88.12,42.94,47,49,6.38,CN,1603308556
151,Puerto Ayora,-0.74,-90.35,78.8,69,40,19.46,EC,1603308557
152,Tandil,-37.32,-59.13,63.0,42,0,8.01,AR,1603308557
153,Ribeira Grande,38.52,-28.7,62.6,59,40,5.82,PT,1603308452
154,Bella Union,-30.28,-57.6,79.77,69,2,14.41,UY,1603308557
155,Chokurdakh,70.63,147.92,8.85,94,100,3.8,RU,1603308557
156,Sinaloa,25.0,-107.5,96.01,50,20,2.37,MX,1603308558
157,Iqaluit,63.75,-68.51,32.0,94,75,4.7,CA,1603308558
158,Beian,63.66,9.57,37.4,93,40,4.7,NO,1603308558
159,Banda Aceh,5.56,95.32,80.8,75,100,7.49,ID,1603308558
160,Hanzhong,33.07,107.03,54.18,67,0,1.59,CN,1603308559
161,Nouadhibou,20.93,-17.03,71.6,88,40,18.34,MR,1603308434
162,Byron Bay,-28.65,153.62,59.0,93,90,3.36,AU,1603308332
163,Panlaitan,12.12,119.85,82.22,82,100,19.06,PH,1603308559
164,Mackay,-21.15,149.2,68.0,94,40,6.93,AU,1603308304
165,Lucera,41.51,15.34,55.4,82,20,4.7,IT,1603308559
166,Tura,25.52,90.22,71.22,93,7,2.62,IN,1603308559
167,Hambantota,6.12,81.12,78.8,100,1,8.05,LK,1603308560
168,Provideniya,64.38,-173.3,39.2,86,75,4.47,RU,1603308283
169,Lanzhou,36.06,103.79,46.99,57,0,4.85,CN,1603308279
170,Sola,-13.88,167.55,77.0,100,75,15.01,VU,1603308560
171,Roald,62.58,6.13,41.0,80,40,17.22,NO,1603308560
172,Igbo-Ora,7.43,3.28,78.15,81,63,4.88,NG,1603308561
173,Chui,-33.7,-53.46,62.26,65,38,14.34,UY,1603308561
174,Patea,-39.76,174.48,55.99,73,96,1.99,NZ,1603308561
175,Rocha,-34.48,-54.33,61.7,62,85,15.52,UY,1603308281
176,Qena,26.16,32.72,86.0,30,0,3.36,EG,1603308561
177,Tías,28.96,-13.64,73.4,64,20,5.82,ES,1603308562
178,San Juan Bautista,-14.01,-75.74,71.6,60,0,16.11,PE,1603308562
179,Ozernovskiy,51.5,156.52,42.39,74,88,19.89,RU,1603308562
180,Kahului,20.89,-156.47,82.4,58,20,4.14,US,1603308562
181,Cadillac,44.25,-85.4,50.0,61,1,11.41,US,1603308562
182,Charlestown,-32.95,151.67,60.01,94,100,1.79,AU,1603308563
183,Luang Prabang,19.89,102.13,66.29,81,16,1.68,LA,1603308563
184,Warri,5.52,5.75,77.38,91,19,4.32,NG,1603308563
185,Aksarka,66.56,67.8,19.11,97,93,12.57,RU,1603308563
186,Tuktoyaktuk,69.45,-133.04,23.0,92,90,10.29,CA,1603308563
187,Chicama,-7.84,-79.15,66.2,77,20,11.41,PE,1603308564
188,Intibucá,14.32,-88.17,70.43,77,100,1.19,HN,1603308564
189,Belogorsk,50.92,128.46,30.45,98,100,14.83,RU,1603308564
190,Enna,37.56,14.29,60.01,81,19,1.9,IT,1603308564
191,Kawalu,-7.38,108.21,71.92,91,100,0.56,ID,1603308564
192,Nhulunbuy,-12.23,136.77,75.2,83,80,3.51,AU,1603308396
193,Departamento de Maldonado,-34.67,-54.92,63.0,55,75,17.22,UY,1603308565
194,Narsaq,60.92,-46.05,32.0,91,75,2.59,GL,1603308288
195,Hangu,39.25,117.79,42.8,81,0,6.73,CN,1603308565
196,Healesville,-37.65,145.52,48.0,99,89,1.07,AU,1603308565
197,Yaan,7.38,8.57,78.46,78,0,2.95,NG,1603308566
198,Pokhara,28.23,83.98,65.35,50,0,4.83,NP,1603308566
199,Algiers,36.75,3.04,78.8,26,40,11.41,DZ,1603308566
200,Praia,14.92,-23.51,82.11,71,0,13.82,CV,1603308566
201,Poum,-20.23,164.02,74.7,79,8,9.33,NC,1603308484
202,Kaduy,59.2,37.15,23.0,100,14,1.95,RU,1603308566
203,Luena,-11.78,19.92,67.71,69,51,3.06,AO,1603308567
204,Zaranj,30.97,61.88,64.4,22,0,11.41,AF,1603308567
205,Saldanha,-33.01,17.94,55.4,82,0,10.29,ZA,1603308567
206,Pervomayskoye,43.92,46.71,48.45,50,100,5.14,RU,1603308567
207,Upernavik,72.79,-56.15,27.27,95,100,7.49,GL,1603308567
208,Thabazimbi,-24.59,27.41,73.99,48,0,1.01,ZA,1603308567
209,Kholtoson,50.3,103.31,26.08,88,0,2.95,RU,1603308568
210,Scarborough,54.28,-0.4,54.0,90,100,4.0,GB,1603308568
211,Kissamos,35.49,23.66,59.0,93,90,16.64,GR,1603308568
212,Fairbanks,64.84,-147.72,24.8,92,90,1.59,US,1603308394
213,Anan,33.92,134.65,69.8,60,75,12.75,JP,1603308568
214,Selikhino,50.37,137.5,46.09,79,100,6.35,RU,1603308569
215,Sicamous,50.83,-118.99,42.01,79,94,2.39,CA,1603308569
216,Waterloo,43.47,-80.52,57.0,76,90,17.22,CA,1603308323
217,Huarmey,-10.07,-78.15,70.68,65,7,11.43,PE,1603308569
218,Mukhen,48.1,136.1,50.09,81,100,6.89,RU,1603308569
219,Claveria,18.61,121.08,79.56,79,100,9.19,PH,1603308569
220,Ahipara,-35.17,173.17,58.91,80,100,5.06,NZ,1603308570
221,Boyolangu,-8.12,111.89,76.28,89,100,2.17,ID,1603308570
222,Calimete,22.53,-80.91,84.74,75,76,9.01,CU,1603308570
223,College,64.86,-147.8,24.8,85,90,3.36,US,1603308570
224,Qasigiannguit,68.82,-51.19,30.2,63,75,4.7,GL,1603308570
225,Dawson Creek,55.77,-120.24,15.8,72,90,6.93,CA,1603308571
226,Touros,-5.2,-35.46,77.0,94,75,11.41,BR,1603308571
227,Ilulissat,69.22,-51.1,30.2,63,75,4.7,GL,1603308571
228,Aykhal,66.0,111.5,3.2,91,90,3.47,RU,1603308571
229,Mayumba,-3.43,10.66,77.74,86,100,7.72,GA,1603308571
230,Avera,33.19,-82.53,82.4,61,40,8.05,US,1603308572
231,Alice Town,25.72,-79.3,81.55,77,100,21.7,BS,1603308572
232,La Asuncion,11.03,-63.86,100.4,42,26,16.11,VE,1603308572
233,Okhotsk,59.38,143.3,31.19,96,99,14.05,RU,1603308572
234,Flagstaff,35.2,-111.65,75.99,10,1,9.17,US,1603308301
235,Yekaterinoslavka,50.37,129.11,33.93,93,100,12.8,RU,1603308572
236,Sterling,39.01,-77.43,81.0,61,20,9.17,US,1603308440
237,Eureka,40.8,-124.16,60.01,87,40,5.82,US,1603308543
238,Phatthalung,7.5,100.08,79.99,76,100,3.27,TH,1603308573
239,Paracuru,-3.41,-39.03,81.0,77,100,13.0,BR,1603308573
240,Tessalit,20.2,1.01,88.3,13,0,7.38,ML,1603308573
241,Bathsheba,13.22,-59.52,87.8,66,20,12.75,BB,1603308573
242,San Buenaventura,27.08,-101.53,85.55,43,36,4.76,MX,1603308573
243,Flinders,-34.58,150.86,61.0,88,96,1.01,AU,1603308470
244,Outjo,-20.12,16.15,69.49,37,89,19.51,NA,1603308574
245,Naryan-Mar,67.67,53.09,25.14,98,62,7.16,RU,1603308507
246,Deniliquin,-35.53,144.97,50.31,88,0,2.24,AU,1603308428
247,General Roca,-39.03,-67.58,73.4,25,72,14.99,AR,1603308574
248,Yar-Sale,66.83,70.83,19.98,97,94,11.65,RU,1603308505
249,Karakol,42.49,78.39,44.19,45,0,4.94,KG,1603308575
250,Mayo,38.89,-76.51,79.0,78,1,5.82,US,1603308575
251,Ipixuna,-1.76,-48.8,84.2,79,40,16.11,BR,1603308575
252,Monte Patria,-30.69,-70.95,79.34,25,0,8.79,CL,1603308575
253,Coahuayana Viejo,18.73,-103.68,84.2,70,40,8.05,MX,1603308576
254,Bodoc,45.95,25.85,43.14,61,47,0.85,RO,1603308576
255,Torbay,47.67,-52.73,55.99,76,75,10.29,CA,1603308576
256,Beyneu,45.32,55.2,42.22,65,100,12.28,KZ,1603308576
257,Paso de Carrasco,-34.86,-56.05,64.0,63,18,25.28,UY,1603308576
258,Dikson,73.51,80.55,22.84,96,100,10.2,RU,1603308577
259,Sokolo,14.73,-6.12,91.96,14,0,7.52,ML,1603308577
260,Lālsot,26.57,76.33,75.2,50,75,2.24,IN,1603308577
261,Te Anau,-45.42,167.72,39.43,84,89,1.1,NZ,1603308577
262,Kodinsk,58.69,99.18,35.58,93,100,5.91,RU,1603308577
263,Semporna,4.48,118.61,75.2,100,20,2.24,MY,1603308578
264,Kaitangata,-46.28,169.85,45.84,75,100,4.68,NZ,1603308578
265,Port Lincoln,-34.73,135.87,57.94,79,100,15.79,AU,1603308578
266,Hamilton,39.18,-84.53,69.01,82,90,4.7,US,1603308473
267,San Cristobal,7.77,-72.22,96.8,32,40,13.87,VE,1603308578
268,Fuxin,42.02,121.66,38.41,60,0,7.52,CN,1603308579
269,Pochutla,15.74,-96.47,89.01,66,40,6.91,MX,1603308579
270,Chester,40.13,-75.87,71.01,100,90,5.82,US,1603308579
271,Camocim,-2.9,-40.84,86.74,58,28,21.03,BR,1603308579
272,Kibala,9.11,18.35,84.2,74,20,5.28,TD,1603308579
273,Tulsīpur,28.13,82.3,66.69,72,0,3.85,NP,1603308579
274,Maningrida,-12.07,134.27,77.99,76,34,2.93,AU,1603308579
275,Kristinestad,62.27,21.38,47.08,94,100,10.76,FI,1603308580
276,Sancti Spíritus,21.93,-79.44,84.69,72,97,7.83,CU,1603308395
277,Salalah,17.02,54.09,82.4,83,20,2.24,OM,1603308580
278,Fukuechō,32.69,128.84,70.99,91,100,14.03,JP,1603308580
279,Egvekinot,66.32,-179.17,32.23,100,73,9.06,RU,1603308531
280,Shanghai,31.22,121.46,62.01,82,100,6.71,CN,1603308286
281,Bereslavka,48.63,44.04,41.0,69,100,3.36,RU,1603308580
282,Kaduqli,11.02,29.72,79.68,62,95,3.62,SD,1603308581
283,Sharjah city,25.36,55.4,84.2,56,0,2.24,AE,1603308581
284,Gubkinskiy,64.43,76.5,20.98,97,21,11.43,RU,1603308581
285,Nemuro,43.32,145.57,55.24,71,100,21.45,JP,1603308581
286,Yerbogachën,61.28,108.01,18.81,97,86,3.91,RU,1603308581
287,Nālūt,30.33,10.85,73.2,37,0,10.83,LY,1603308581
288,Half Moon Bay,37.46,-122.43,78.01,60,5,4.7,US,1603308450
289,Bogorodskoye,56.55,37.88,35.31,98,100,2.91,RU,1603308582
290,Adré,13.47,22.2,80.87,16,100,7.54,TD,1603308582
291,Alice Springs,-23.7,133.88,78.8,39,0,8.05,AU,1603308520
292,Bilma,18.69,12.92,83.71,14,0,6.33,NE,1603308582
293,Lata,40.16,-8.33,60.01,83,3,3.6,PT,1603308582
294,Shahdol,23.28,81.35,68.94,47,8,2.19,IN,1603308583
295,Hofn,64.25,-15.21,32.0,77,75,3.36,IS,1603308583
296,Tecalitlán,19.47,-103.3,84.2,70,40,8.05,MX,1603308583
297,Lukovetskiy,64.3,41.92,28.4,92,39,4.47,RU,1603308583
298,Bollnäs,61.35,16.39,45.37,92,100,3.27,SE,1603308583
299,Ballina,-28.87,153.57,59.0,93,90,3.36,AU,1603308583
300,Kudahuvadhoo,2.67,72.89,82.49,77,15,12.91,MV,1603308583
301,Shiyan,32.65,110.78,56.03,61,0,4.68,CN,1603308584
302,Deputatsky,69.3,139.9,6.71,97,100,1.95,RU,1603308584
303,Isangel,-19.55,169.27,77.0,83,75,5.82,VU,1603308584
304,Pativilca,-10.7,-77.78,69.28,67,11,10.09,PE,1603308584
305,Batagay,67.63,134.63,9.23,95,100,1.36,RU,1603308584
306,Hervey Bay,-25.3,152.85,66.0,82,40,6.93,AU,1603308355
307,Zhangaözen,43.3,52.8,42.39,64,0,6.69,KZ,1603308585
308,São Filipe,14.9,-24.5,83.77,62,79,4.9,CV,1603308585
309,Nuuk,64.18,-51.72,32.0,93,75,4.7,GL,1603308585
310,Ordu,40.91,37.68,62.6,93,75,6.93,TR,1603308585
311,Carutapera,-1.2,-46.02,84.76,63,0,11.12,BR,1603308546
312,Kamina,-8.74,24.99,66.99,90,99,3.62,CD,1603308585
313,Lorengau,-2.02,147.27,81.75,76,92,7.36,PG,1603308586
314,Lavrentiya,65.58,-171.0,35.74,85,0,5.12,RU,1603308586
315,Corsicana,32.1,-96.47,82.4,61,40,9.17,US,1603308586
316,Yarmouth,41.71,-70.23,69.01,100,90,6.93,US,1603308457
317,Kruisfontein,-34.0,24.73,59.0,72,0,3.65,ZA,1603308586
318,Dum Duma,27.57,95.57,71.1,96,0,2.35,IN,1603308586
319,Kirkuk,35.47,44.39,73.09,21,0,8.93,IQ,1603308587
320,Mocuba,-16.84,36.99,76.06,81,77,8.5,MZ,1603308587
321,Dharān,26.81,87.28,71.58,76,0,5.46,NP,1603308587
322,Clarence Town,-32.58,151.78,57.0,93,100,2.21,AU,1603308587
323,Biak,-0.91,122.88,76.08,72,97,4.72,ID,1603308588
324,Vila Velha,-20.33,-40.29,80.01,83,75,8.05,BR,1603308414
325,Guanare,9.04,-69.74,80.83,85,100,4.52,VE,1603308588
326,Luanda,-8.84,13.23,76.35,82,99,8.99,AO,1603308461
327,Airai,-8.93,125.41,59.49,86,0,1.25,TL,1603308588
328,Geraldton,-28.77,114.6,55.4,87,40,4.7,AU,1603308430
329,Aklavik,68.22,-135.01,17.6,85,75,3.36,CA,1603308588
330,Laas,46.62,10.7,50.0,81,5,8.05,IT,1603308589
331,Ratnagiri,16.98,73.3,78.35,87,74,5.1,IN,1603308589
332,Mersing,2.43,103.84,77.0,94,100,2.24,MY,1603308589
333,Mount Gambier,-37.83,140.77,42.8,93,100,5.82,AU,1603308589
334,Tual,-5.67,132.75,81.95,83,46,9.01,ID,1603308529
335,Dingle,11.0,122.67,76.32,91,100,6.82,PH,1603308589
336,Shingū,33.73,135.98,63.32,88,99,11.41,JP,1603308590
337,Palauig,15.44,119.9,80.78,84,100,21.59,PH,1603308590
338,Skibotn,69.39,20.27,24.8,73,20,20.8,NO,1603308590
339,Westport,41.14,-73.36,69.8,77,1,3.36,US,1603308590
340,Tongren,27.72,109.19,56.14,77,69,2.33,CN,1603308590
341,Saint George,37.1,-113.58,77.0,14,1,2.37,US,1603308590
342,Margate,51.38,1.39,57.99,87,90,4.0,GB,1603308316
343,Pardina,45.31,28.96,53.6,76,26,8.05,RO,1603308591
344,Ayabe,35.3,135.25,64.99,70,100,4.09,JP,1603308591
345,Yulara,-25.24,130.99,80.6,36,87,6.93,AU,1603308591
346,Ibaiti,-23.85,-50.19,75.0,94,32,5.99,BR,1603308591
347,Katsuura,35.13,140.3,60.8,67,75,14.99,JP,1603308591
348,Kulhudhuffushi,6.62,73.07,81.61,79,100,9.78,MV,1603308592
349,Giehun,7.88,-11.05,74.5,94,72,2.37,SL,1603308592
350,Urubichá,-15.38,-62.95,76.3,84,100,2.73,BO,1603308592
351,Ous,60.91,61.52,26.83,96,50,3.67,RU,1603308592
352,Arlit,18.74,7.39,93.78,10,40,11.1,NE,1603308592
353,Chupa,66.27,33.05,27.09,97,0,2.86,RU,1603308593
354,Mareeba,-17.0,145.43,69.8,88,36,1.12,AU,1603308593
355,Belaya Gora,68.53,146.42,5.4,94,100,1.81,RU,1603308593
356,Kvitok,56.07,98.48,34.05,90,77,4.36,RU,1603308593
357,Paradise Valley,33.53,-111.94,93.0,13,1,4.7,US,1603308593
358,Cherskiy,68.75,161.3,16.11,97,79,5.12,RU,1603308593
359,Tabory,58.52,64.55,27.52,98,0,4.7,RU,1603308594
360,Weiser,44.25,-116.97,62.6,36,1,5.82,US,1603308486
361,Constitución,-35.33,-72.42,58.89,63,6,11.97,CL,1603308436
362,Ajdabiya,30.76,20.23,69.42,48,0,9.48,LY,1603308594
363,Eidfjord,60.47,7.07,33.01,87,100,4.23,NO,1603308594
364,Pimentel,-6.84,-79.93,73.4,60,99,20.8,PE,1603308594
365,San Jose,37.34,-121.89,84.0,31,20,4.7,US,1603308370
366,Līsakovsk,52.54,62.49,39.25,70,100,10.51,KZ,1603308595
367,Upington,-28.45,21.26,71.6,13,0,4.7,ZA,1603308595
368,Manyana,-23.4,21.72,83.01,15,15,11.95,BW,1603308595
369,Sumter,28.71,-82.08,82.99,76,100,5.99,US,1603308476
370,Makkah al Mukarramah,21.43,39.83,78.08,36,0,4.34,SA,1603308595
371,Ýpsonas,34.69,32.96,75.2,57,0,8.05,CY,1603308596
372,Iquitos,-3.75,-73.25,84.2,74,75,3.36,PE,1603308344
373,Dunedin,-45.87,170.5,52.0,74,100,3.0,NZ,1603308596
374,Kiryat Gat,31.61,34.76,77.0,88,0,7.92,IL,1603308596
375,Tigil',57.8,158.67,31.51,96,2,3.87,RU,1603308596
376,Durban,-29.86,31.03,69.01,82,75,6.93,ZA,1603308597
377,Marawi,8.0,124.29,77.0,84,99,4.47,PH,1603308597
378,Kralendijk,12.15,-68.27,87.8,70,75,14.99,BQ,1603308400
379,Severo-Yeniseyskiy,60.37,93.04,35.96,95,98,9.53,RU,1603308597
380,Newport,51.59,-3.0,57.0,98,100,1.01,GB,1603308406
381,Uglovskoye,51.36,80.19,50.68,45,91,19.35,RU,1603308598
382,Van,38.49,43.38,46.4,46,0,2.44,TR,1603308598
383,Ponta Delgada,37.73,-25.67,59.0,77,40,9.17,PT,1603308334
384,Alofi,-19.06,-169.92,73.4,94,100,17.22,NU,1603308598
385,Laguna,38.42,-121.42,82.0,28,1,3.36,US,1603308598
386,Bereda,43.27,-7.54,55.0,93,14,5.01,ES,1603308598
387,São João del Rei,-21.14,-44.26,75.63,68,91,4.38,BR,1603308599
388,Huntsville,34.73,-86.59,82.0,65,75,5.82,US,1603308319
389,Lábrea,-7.26,-64.8,92.25,47,100,1.14,BR,1603308599
390,Aasiaat,68.71,-52.87,25.83,96,91,2.39,GL,1603308599
391,Husavik,66.04,-17.34,30.2,92,90,2.24,IS,1603308599
392,Abu Dhabi,24.47,54.37,82.4,69,0,3.36,AE,1603308474
393,Kwang Binh,17.48,106.6,69.93,79,100,8.75,VN,1603308599
394,São José da Coroa Grande,-8.9,-35.15,80.4,74,2,10.8,BR,1603308600
395,Suleja,9.18,7.18,73.4,94,20,3.36,NG,1603308600
396,Moanda,-1.56,13.22,78.8,83,40,5.82,GA,1603308600
397,Bikin,46.82,134.26,49.46,93,100,5.1,RU,1603308600
398,Grand Forks,47.94,-97.43,35.6,80,75,9.17,US,1603308600
399,Bengkulu,-3.8,102.27,77.56,84,100,5.55,ID,1603308601
400,Tornio,65.85,24.15,28.4,92,90,13.87,FI,1603308601
401,Olafsvik,64.89,-23.71,40.19,93,100,27.63,IS,1603308601
402,Cayenne,4.93,-52.33,87.8,58,20,12.75,GF,1603308602
403,Hualmay,-11.1,-77.61,69.26,68,18,10.85,PE,1603308602
404,Harar,9.31,42.13,58.62,45,0,3.56,ET,1603308603
405,Puerto Escondido,15.85,-97.07,86.0,70,75,5.82,MX,1603308604
406,Kamennogorsk,60.95,29.13,37.0,93,90,10.29,RU,1603308605
407,Shelburne,44.08,-80.2,57.99,71,75,13.87,CA,1603308605
408,Conceição da Barra,-18.59,-39.73,77.22,81,93,5.86,BR,1603308335
409,Oga,46.46,10.35,46.99,69,33,8.05,IT,1603308606
410,São João da Barra,-21.64,-41.05,80.6,65,20,16.11,BR,1603308607
411,Robāţ Karīm,35.48,51.08,60.8,54,0,13.87,IR,1603308607
412,Cururupu,-1.83,-44.87,83.35,65,70,6.58,BR,1603308607
413,Ailigandí,9.23,-78.02,85.8,74,4,5.14,PA,1603308608
414,Amurzet,47.7,131.1,39.67,72,0,9.51,RU,1603308608
415,Beringovskiy,63.05,179.32,39.45,80,94,8.75,RU,1603308546
416,Senanga,-16.12,23.27,79.83,17,11,6.64,ZM,1603308609
417,Suntar,62.14,117.63,16.36,97,73,3.94,RU,1603308609
418,Mahajanga,-15.72,46.32,80.6,78,20,3.36,MG,1603308610
419,Warrnambool,-38.38,142.48,45.0,94,50,5.5,AU,1603308611
420,Dhilwan,31.52,75.35,64.4,82,0,1.83,IN,1603308611
421,Staritsa,56.51,34.94,36.84,96,100,3.65,RU,1603308612
422,Hoi An,15.88,108.33,73.4,83,75,1.12,VN,1603308612
423,Coyhaique,-45.58,-72.07,62.6,29,0,10.29,CL,1603308613
424,Mzimba,-11.9,33.6,70.7,53,95,12.1,MW,1603308613
425,Acapulco de Juárez,16.86,-99.89,86.0,74,90,5.82,MX,1603308613
426,Rognan,67.1,15.39,35.6,59,40,23.04,NO,1603308614
427,Iralaya,15.0,-83.23,83.59,76,100,9.26,HN,1603308614
428,Mugur-Aksy,50.35,90.5,25.97,82,99,7.05,RU,1603308614
429,Sukhumi,43.0,41.02,58.46,62,100,4.74,GE,1603308614
430,Nchelenge,-9.35,28.73,76.01,68,100,9.4,ZM,1603308615
431,Camacha,33.08,-16.33,66.2,59,20,17.22,PT,1603308615
432,Mahanoro,-19.9,48.8,70.16,76,37,1.7,MG,1603308615
433,Maniitsoq,65.42,-52.9,31.44,97,94,11.05,GL,1603308616
434,Yangi Marg`ilon,40.43,71.72,53.6,46,34,2.24,UZ,1603308503
435,Āreka,7.07,37.7,61.29,77,27,2.21,ET,1603308616
436,Belyy Yar,53.6,91.39,30.2,92,55,4.05,RU,1603308617
437,Bintulu,3.17,113.03,75.2,94,40,3.36,MY,1603308617
438,Sabang,5.89,95.32,82.58,77,100,12.48,ID,1603308617
439,Lincoln,40.8,-96.67,50.0,79,86,3.0,US,1603308390
440,Kingman,35.19,-114.05,89.01,10,1,13.87,US,1603308618
441,Creston,41.06,-94.36,50.0,87,90,9.17,US,1603308618
442,Sitka,57.05,-135.33,37.4,47,1,5.82,US,1603308452
443,Salinópolis,-0.61,-47.36,82.9,70,55,13.15,BR,1603308618
444,Karla,59.37,24.93,44.6,93,100,8.05,EE,1603308619
445,Bonito,-21.12,-56.48,79.3,67,98,9.62,BR,1603308619
446,Abnūb,27.27,31.15,82.4,39,0,9.17,EG,1603308506
447,Lompoc,34.64,-120.46,66.2,77,40,3.36,US,1603308620
448,Keti Bandar,24.14,67.45,79.25,57,47,5.14,PK,1603308620
449,Abu Samrah,35.3,37.18,65.46,82,0,9.69,SY,1603308407
450,Kondinskoye,59.65,67.41,30.69,99,94,5.73,RU,1603308507
451,Moindou,-21.69,165.68,68.0,94,0,3.42,NC,1603308621
452,Mbarara,-0.61,30.65,64.63,89,100,2.26,UG,1603308622
453,Alcácer do Sal,38.37,-8.51,62.6,82,20,6.93,PT,1603308622
454,Bambanglipuro,-7.95,110.28,76.66,83,88,2.59,ID,1603308622
455,Porto Franco,-6.34,-47.4,96.73,28,99,4.47,BR,1603308623
456,Konya Province,38.17,32.5,60.8,63,75,5.82,TR,1603308623
457,Mwanza,-2.52,32.9,69.8,88,40,6.44,TZ,1603308623
458,San Policarpo,12.18,125.51,79.83,86,100,9.19,PH,1603308572
459,Gberia Fotombu,9.88,-11.17,72.34,89,74,2.28,SL,1603308623
460,Mīrābād,30.44,61.84,63.03,26,0,13.8,AF,1603308624
461,Ketchikan,55.34,-131.65,42.8,81,40,12.75,US,1603308624
462,Sioux Lookout,50.1,-91.92,32.0,83,90,4.7,CA,1603308541
463,Inírida,3.87,-67.92,88.72,63,92,1.3,CO,1603308625
464,Hay River,60.82,-115.8,24.8,85,90,18.34,CA,1603308625
465,Gonder,12.6,37.47,58.08,74,7,4.59,ET,1603308625
466,Prince Rupert,54.32,-130.32,42.8,87,1,2.24,CA,1603308625
467,Luba,3.46,8.55,78.44,83,60,3.96,GQ,1603308625
468,Krasnoborsk,61.56,45.93,29.26,98,89,7.18,RU,1603308626
469,Sapa,5.15,120.32,82.29,82,20,12.26,PH,1603308626
470,Pacific Grove,36.62,-121.92,78.01,63,1,5.82,US,1603308440
471,Henties Bay,-22.12,14.28,61.0,89,80,3.0,NA,1603308401
472,Zeya,53.75,127.27,26.62,96,100,6.38,RU,1603308626
473,Ternate,0.8,127.4,80.51,79,92,3.44,ID,1603308352
474,Mogadishu,2.04,45.34,80.11,83,83,13.09,SO,1603308627
475,Makhachkala,42.98,47.5,50.0,76,37,6.71,RU,1603308616
476,Altamont,42.21,-121.74,60.01,47,1,6.93,US,1603308627
477,Santa Isabel,-23.32,-46.22,80.6,69,40,10.29,BR,1603308627
478,Agirish,61.92,63.02,26.15,97,98,4.52,RU,1603308628
479,Vite,17.28,74.55,72.52,84,52,3.51,IN,1603308628
480,Saint-Pierre,-21.34,55.48,75.2,69,19,16.11,RE,1603308628
481,Cuamba,-14.8,36.54,82.26,34,74,8.68,MZ,1603308629
482,Aurillac,44.92,2.45,62.01,77,20,21.92,FR,1603308629
483,Kovūr,14.48,79.98,77.88,85,100,7.2,IN,1603308630
484,Wakkanai,45.41,141.67,55.26,80,100,15.97,JP,1603308630
485,Chongqing,29.56,106.55,57.0,100,0,2.24,CN,1603308630
486,Cumberland,35.05,-78.87,82.4,57,1,6.93,US,1603308630
487,Vallenar,-28.57,-70.76,79.48,27,0,8.01,CL,1603308630
488,Portland,45.52,-122.68,57.0,66,75,6.93,US,1603308613
489,Stalowa Wola,50.58,22.05,53.01,67,100,8.01,PL,1603308631
490,Cabo San Lucas,22.89,-109.91,93.2,55,5,3.36,MX,1603308631
491,Ovsyanka,55.96,92.55,48.2,80,100,13.42,RU,1603308632
492,Kargopol',61.51,38.95,27.46,98,66,3.42,RU,1603308632
493,Tazovsky,67.47,78.7,18.52,97,95,9.89,RU,1603308632
494,Kotido,2.98,34.13,72.52,71,7,2.06,UG,1603308633
495,Burnie,-41.07,145.92,51.01,84,82,5.73,AU,1603308633
496,Jining,35.41,116.58,49.8,46,0,3.6,CN,1603308634
497,Albacete,38.83,-2.0,62.6,55,93,3.36,ES,1603308634
498,Balkanabat,39.51,54.37,56.39,40,7,5.53,TM,1603308634
499,Andenes,69.31,16.12,33.8,69,0,14.99,NO,1603308533
500,Catalão,-18.17,-47.95,79.38,62,27,3.98,BR,1603308443
501,Bandarbeyla,9.49,50.81,80.37,67,2,1.39,SO,1603308635
502,Kushima,31.46,131.23,68.0,77,91,8.01,JP,1603308635
503,Brattvåg,62.6,6.44,41.0,80,40,17.22,NO,1603308635
504,Aborlan,9.44,118.55,78.8,88,20,4.7,PH,1603308635
505,Ayagoz,47.97,80.44,49.5,45,0,19.15,KZ,1603308636
506,Edéa,3.8,10.13,74.16,95,37,2.26,CM,1603308636
507,Kieta,-6.22,155.63,79.48,79,94,4.45,PG,1603308637
508,Champerico,14.3,-91.92,87.8,70,75,6.93,GT,1603308637
509,Carmo do Rio Claro,-20.97,-46.12,80.31,55,50,2.57,BR,1603308637
510,Adrar,20.5,-10.07,90.64,15,100,6.2,MR,1603308446
511,Sibolga,1.74,98.78,75.76,87,100,4.34,ID,1603308452
512,Dombarovskiy,50.76,59.54,36.86,78,7,12.44,RU,1603308638
513,Havre-St-Pierre,50.23,-63.6,39.2,64,90,6.93,CA,1603308638
514,Grajaú,-5.82,-46.14,99.03,24,49,5.88,BR,1603308638
515,Paoua,7.24,16.44,71.73,86,21,3.98,CF,1603308639
516,Guerrero Negro,27.98,-114.06,76.86,58,11,12.28,MX,1603308639
517,Najrān,17.49,44.13,73.4,30,0,2.33,SA,1603308639
518,Along,28.17,94.77,63.59,86,12,1.79,IN,1603308639
519,Forsytheganj,52.63,29.73,43.95,89,100,4.9,BY,1603308639
520,Broken Hill,-31.95,141.43,64.4,34,0,6.8,AU,1603308640
521,Florø,61.6,5.03,44.6,100,75,3.36,NO,1603308640
522,Ulagan,50.63,87.96,31.77,84,4,3.83,RU,1603308640
523,Rio Grande,-32.03,-52.1,61.0,93,100,5.01,BR,1603308570
524,Biltine,14.53,20.92,86.85,13,0,11.07,TD,1603308640
525,Mujiayingzi,42.12,118.78,31.6,75,15,6.58,CN,1603308641
526,Talnakh,69.49,88.4,12.2,92,40,11.18,RU,1603308532
527,Hasaki,35.73,140.83,57.2,87,75,8.05,JP,1603308641
528,Peniche,39.36,-9.38,62.01,85,67,1.99,PT,1603308641
529,Imbituba,-28.24,-48.67,77.0,73,20,13.87,BR,1603308642
530,Gerāsh,27.67,54.14,62.6,23,0,4.7,IR,1603308642
531,Sechura,-5.56,-80.82,77.85,51,46,14.99,PE,1603308642
532,Rawson,-43.3,-65.1,64.33,31,98,28.05,AR,1603308409
533,Vanimo,-2.67,141.3,75.36,82,100,5.06,PG,1603308643
534,Maragogi,-9.01,-35.22,78.35,81,0,9.17,BR,1603308632
535,Batagay-Alyta,67.8,130.41,10.0,93,100,0.47,RU,1603308643
536,Oranjemund,-28.55,16.43,66.94,49,0,19.3,NA,1603308643
537,Topolobampo,25.6,-109.05,97.0,44,5,14.99,MX,1603308563
538,Neiafu,-18.65,-173.98,77.0,88,75,19.3,TO,1603308535
539,Bilibino,68.05,166.44,21.74,96,90,1.36,RU,1603308644
540,Port-Cartier,50.03,-66.87,37.0,80,90,10.29,CA,1603308644
541,Kitimat,54.05,-128.65,39.99,88,74,2.46,CA,1603308644
542,Rāmhormoz,31.28,49.6,66.06,50,0,1.52,IR,1603308644
543,Bariloche,-41.15,-71.31,68.0,30,75,9.17,AR,1603308630
544,Litovko,49.24,135.17,45.68,95,100,4.72,RU,1603308645
545,Trairi,-3.28,-39.27,81.88,71,99,13.33,BR,1603308606
546,Meadow Lake,34.8,-106.54,81.0,11,20,4.7,US,1603308645
547,Bârlad,46.23,27.67,50.0,76,57,10.29,RO,1603308645
548,Matamoros,25.53,-103.25,87.8,29,5,8.21,MX,1603308645
549,Nishihara,26.18,127.76,77.0,100,75,15.9,JP,1603308645
550,Simao,22.79,100.97,53.2,86,95,2.13,CN,1603308646
551,Azare,11.68,10.19,80.11,31,0,2.26,NG,1603308646
552,San Juan del Cesar,10.77,-73.0,87.82,62,53,4.97,CO,1603308646
