City_ID,City,Lat,Lon,Max Temp,Humidity,Cloudiness,Windspeed,Country,Date
0,Ribeira Grande,38.52,-28.7,60.8,67,40,6.93,PT,1603262680
1,Grindavik,63.84,-22.43,37.4,86,90,9.17,IS,1603262680
2,Christchurch,-43.53,172.63,59.0,67,0,8.05,NZ,1603262494
3,Sedalia,38.7,-93.23,46.4,93,1,8.05,US,1603262680
4,La Ciotat,43.17,5.6,61.0,79,53,5.01,FR,1603262681
5,Lagoa,39.05,-27.98,62.96,70,58,22.7,PT,1603262681
6,Busselton,-33.65,115.33,62.01,84,2,7.0,AU,1603262681
7,Imatra,61.17,28.75,30.2,86,40,6.93,FI,1603262681
8,Hobart,-42.88,147.33,60.8,51,75,10.29,AU,1603262626
9,Rikitea,-23.12,-134.97,73.89,77,21,9.89,PF,1603262681
10,Chui,-33.7,-53.46,56.82,75,67,12.12,UY,1603262682
11,Tasiilaq,65.61,-37.64,32.0,97,97,11.41,GL,1603262682
12,Punta Arenas,-53.15,-70.92,37.4,74,75,8.05,CL,1603262682
13,East London,-33.02,27.91,66.2,42,0,6.93,ZA,1603262682
14,Namatanai,-3.67,152.43,82.2,74,69,2.66,PG,1603262414
15,Kigoma,-4.88,29.63,71.6,88,75,10.2,TZ,1603262682
16,Tuktoyaktuk,69.45,-133.04,20.86,96,100,13.98,CA,1603262683
17,Māngrol,21.12,70.12,88.5,61,0,6.87,IN,1603262683
18,Ribas do Rio Pardo,-20.44,-53.76,70.88,85,100,1.7,BR,1603262683
19,Severo-Kuril'sk,50.68,156.12,41.25,70,48,24.63,RU,1603262683
20,Dikson,73.51,80.55,23.97,97,98,5.66,RU,1603262683
21,Prăjeni,47.52,27.02,48.0,75,100,8.05,RO,1603262683
22,Alofi,-19.06,-169.92,71.6,94,100,17.22,NU,1603262684
23,Bereda,43.27,-7.54,55.0,100,43,5.99,ES,1603262684
24,Mitsamiouli,-11.38,43.28,80.73,72,17,6.15,KM,1603262684
25,Jamestown,42.1,-79.24,55.0,100,90,6.93,US,1603262684
26,Port Hawkesbury,45.62,-61.35,55.0,93,75,2.24,CA,1603262684
27,Ushuaia,-54.8,-68.3,39.2,80,20,12.75,AR,1603262684
28,Qaanaaq,77.48,-69.36,20.05,82,97,5.86,GL,1603262685
29,Constantine,36.37,6.61,51.8,57,0,9.17,DZ,1603262685
30,Arraial do Cabo,-22.97,-42.03,71.71,90,9,14.41,BR,1603262685
31,Bluff,-46.6,168.33,55.99,68,43,8.99,NZ,1603262685
32,Yellowknife,62.46,-114.35,23.0,73,90,9.17,CA,1603262596
33,Mar del Plata,-38.0,-57.56,52.0,93,0,6.38,AR,1603262685
34,Albany,42.6,-73.97,50.0,85,94,2.19,US,1603262686
35,Butaritari,3.07,172.79,82.08,75,71,7.4,KI,1603262686
36,Yangi Marg`ilon,40.43,71.72,68.0,30,0,4.7,UZ,1603262686
37,Bandarbeyla,9.49,50.81,86.58,45,1,8.21,SO,1603262462
38,Xudat,41.63,48.68,57.92,74,97,5.77,AZ,1603262686
39,Lorengau,-2.02,147.27,83.86,70,99,3.65,PG,1603262686
40,Adrar,20.5,-10.07,79.09,20,0,4.92,MR,1603262687
41,Kapaa,22.08,-159.32,77.0,83,75,4.7,US,1603262687
42,Norman Wells,65.28,-126.83,23.0,85,90,13.87,CA,1603262687
43,Castro,-24.79,-50.01,60.82,96,95,8.63,BR,1603262447
44,Saskylakh,71.92,114.08,16.34,96,71,5.91,RU,1603262687
45,Inírida,3.87,-67.92,73.8,95,71,1.81,CO,1603262687
46,Fairbanks,64.84,-147.72,21.99,85,90,1.14,US,1603262452
47,Hamilton,39.18,-84.53,62.01,87,20,9.17,US,1603262559
48,Moses Lake,47.13,-119.28,50.0,39,1,9.17,US,1603262688
49,Plastun,44.76,136.29,55.98,80,100,6.73,RU,1603262688
50,Puerto Ayora,-0.74,-90.35,69.01,90,70,5.01,EC,1603262688
51,Mikhaylovka,50.06,43.24,42.01,72,0,8.01,RU,1603262688
52,Mahibadhoo,3.78,72.97,82.47,79,58,13.0,MV,1603262688
53,Hibbing,47.43,-92.94,30.2,92,90,3.38,US,1603262688
54,Uzhhorod,48.62,22.3,44.6,75,100,6.71,UA,1603262689
55,Avarua,-21.21,-159.78,73.4,88,100,9.17,CK,1603262676
56,Buchanan,5.88,-10.05,77.0,94,75,4.43,LR,1603262689
57,Buraidah,26.33,43.98,75.2,29,0,2.24,SA,1603262689
58,Atuona,-9.8,-139.03,77.7,75,8,18.05,PF,1603262689
59,Isiro,2.77,27.62,79.02,66,57,3.27,CD,1603262689
60,De-Kastri,51.47,140.78,46.51,72,100,9.69,RU,1603262689
61,Ternate,0.8,127.4,83.57,74,41,9.01,ID,1603262690
62,Russell,32.35,-85.2,66.99,88,75,5.26,US,1603262690
63,Vaini,-21.2,-175.2,71.6,78,90,5.82,TO,1603262690
64,Lac-Mégantic,45.58,-70.88,42.01,92,100,1.99,CA,1603262690
65,Taltal,-25.4,-70.48,56.53,76,59,1.59,CL,1603262690
66,Jacksonville,30.33,-81.66,73.99,88,90,4.7,US,1603262611
67,Thinadhoo,0.53,72.93,82.6,80,3,11.72,MV,1603262690
68,Pontianak,-0.03,109.33,87.69,65,38,7.14,ID,1603262691
69,Mahébourg,-20.41,57.7,80.6,65,75,14.99,MU,1603262691
70,Muscat,23.61,58.59,87.8,22,0,5.82,OM,1603262691
71,Saint Paul Harbor,57.79,-152.41,39.2,60,1,6.93,US,1603262552
72,Salisbury,51.07,-1.8,57.99,93,90,10.29,GB,1603262691
73,São Filipe,14.9,-24.5,81.61,72,54,4.36,CV,1603262691
74,Padang,-0.95,100.35,85.53,66,99,7.02,ID,1603262691
75,Port Lincoln,-34.73,135.87,64.63,62,96,10.69,AU,1603262558
76,Brae,60.4,-1.35,46.4,87,75,32.21,GB,1603262692
77,Dzhebariki-Khaya,62.22,135.8,19.69,94,100,5.84,RU,1603262692
78,Coquimbo,-29.95,-71.34,53.6,93,0,3.06,CL,1603262692
79,Shache,38.42,77.24,69.19,19,0,0.96,CN,1603262692
80,Tuatapere,-46.13,167.68,55.99,68,40,8.99,NZ,1603262430
81,Nirgua,10.16,-68.57,66.56,93,81,1.81,VE,1603262692
82,Kenai,60.55,-151.26,39.0,86,1,4.38,US,1603262693
83,Constitución,-35.33,-72.42,49.87,75,34,8.95,CL,1603262693
84,Laas,46.62,10.7,48.99,100,40,4.7,IT,1603262693
85,Mataura,-46.19,168.86,55.99,68,95,8.99,NZ,1603262693
86,Kuloy,61.03,42.49,32.99,93,100,10.56,RU,1603262693
87,Rio Verde de Mato Grosso,-18.92,-54.84,72.63,82,99,3.29,BR,1603262694
88,Provideniya,64.38,-173.3,42.8,87,75,8.95,RU,1603262694
89,Portland,45.52,-122.68,55.4,76,75,9.17,US,1603261914
90,Trelew,-43.25,-65.31,50.0,76,75,5.82,AR,1603262694
91,Vicksburg,32.35,-90.88,68.0,100,40,4.36,US,1603262694
92,Karwar,14.8,74.13,80.73,79,56,3.27,IN,1603262492
93,Japura,-0.32,102.35,85.69,81,100,3.27,ID,1603262695
94,Honiara,-9.43,159.95,80.6,88,40,11.41,SB,1603262686
95,Roboré,-18.33,-59.75,71.31,83,34,0.4,BO,1603262695
96,Morehead,37.27,-87.18,68.0,82,1,5.82,US,1603262695
97,Copperas Cove,31.12,-97.9,73.4,78,1,9.17,US,1603262695
98,Upernavik,72.79,-56.15,31.23,99,100,11.63,GL,1603262695
99,Itarema,-2.92,-39.92,78.66,74,79,14.18,BR,1603262696
100,Lompoc,34.64,-120.46,57.99,93,90,3.36,US,1603262653
101,Oussouye,12.48,-16.55,82.4,88,40,4.7,SN,1603262696
102,Bengkulu,-3.8,102.27,85.01,67,91,8.01,ID,1603262696
103,Mubi,10.27,13.26,78.89,40,0,1.32,NG,1603262697
104,Hilo,19.73,-155.09,75.2,73,1,3.36,US,1603262621
105,Avera,33.19,-82.53,64.4,96,1,4.7,US,1603262697
106,Berlevåg,70.86,29.09,33.8,81,75,5.82,NO,1603262697
107,Beloha,-25.17,45.05,90.66,26,0,5.84,MG,1603262697
108,Marshall,34.38,-86.33,63.0,87,1,4.09,US,1603262697
109,Resistencia,-27.46,-58.98,73.4,78,50,10.29,AR,1603262697
110,Turaif,31.67,38.66,75.2,14,0,9.17,SA,1603262698
111,Río Gallegos,-51.62,-69.22,41.0,65,100,14.99,AR,1603262481
112,Narsaq,60.92,-46.05,32.0,90,100,2.35,GL,1603262698
113,The Valley,18.22,-63.06,82.4,74,20,4.7,AI,1603262698
114,Lakatoro,-16.1,167.42,77.0,94,75,10.0,VU,1603262698
115,Saint-Philippe,-21.36,55.77,82.4,54,20,23.04,RE,1603262698
116,Cabo San Lucas,22.89,-109.91,79.0,69,0,1.01,MX,1603262460
117,Port Blair,11.67,92.75,84.54,75,0,16.02,IN,1603262648
118,Gornopravdinsk,60.05,69.9,37.27,85,93,7.52,RU,1603262699
119,Praia da Vitória,38.73,-27.07,59.0,72,40,23.76,PT,1603262699
120,Cape Town,-33.93,18.42,64.0,67,0,13.87,ZA,1603262694
121,Kurya,51.6,82.29,58.53,34,65,9.1,RU,1603262699
122,Kapoeta,4.77,33.59,82.83,55,35,9.51,SS,1603262700
123,Port Alfred,-33.59,26.89,64.63,50,0,3.67,ZA,1603262700
124,Carnarvon,-24.87,113.63,75.2,57,40,21.92,AU,1603262700
125,Léo,11.1,-2.1,76.89,70,0,5.35,BF,1603262700
126,Buala,-8.14,159.59,82.44,74,77,5.5,SB,1603262700
127,Bredasdorp,-34.53,20.04,57.2,71,0,1.12,ZA,1603262700
128,Kaitangata,-46.28,169.85,54.0,64,98,1.01,NZ,1603262701
129,Korla,41.76,86.15,67.15,23,0,11.86,CN,1603262701
130,Batagay-Alyta,67.8,130.41,10.96,92,100,1.86,RU,1603262701
131,Sunbury,-37.58,144.73,63.0,59,75,14.99,AU,1603262701
132,Lüderitz,-26.65,15.16,75.2,20,0,7.54,NA,1603262701
133,Imuris,30.78,-110.87,64.15,30,0,2.01,MX,1603262702
134,Alabaster,33.24,-86.82,68.0,88,1,3.91,US,1603262614
135,Nanortalik,60.14,-45.24,33.87,90,100,12.8,GL,1603262457
136,Olafsvik,64.89,-23.71,41.14,90,100,12.95,IS,1603262703
137,Bagdarin,54.43,113.6,26.87,75,0,5.39,RU,1603262703
138,Tres Arroyos,-38.37,-60.28,38.48,74,0,6.44,AR,1603262704
139,Tautira,-17.73,-149.15,78.8,74,40,4.7,PF,1603262704
140,Hermanus,-34.42,19.23,60.01,73,0,1.01,ZA,1603262704
141,Kodinsk,58.69,99.18,35.96,85,100,6.29,RU,1603262704
142,Binzhou,37.37,118.02,68.0,25,0,3.0,CN,1603262705
143,Paengaroa,-37.82,176.42,63.0,87,100,5.77,NZ,1603262705
144,Geraldton,-28.77,114.6,71.6,56,90,19.46,AU,1603262705
145,Humberto de Campos,-2.6,-43.46,76.46,80,68,6.62,BR,1603262705
146,Sungai Raya,0.7,108.9,87.75,63,93,6.82,ID,1603262705
147,Kavaratti,10.57,72.64,86.0,70,40,5.82,IN,1603262705
148,Tiksi,71.69,128.87,8.15,92,89,8.1,RU,1603262706
149,Novikovo,51.15,37.89,41.43,67,60,6.89,RU,1603262706
150,Louviers,49.22,1.17,55.99,100,90,14.99,FR,1603262706
151,Kapit,2.02,112.93,90.93,54,99,4.25,MY,1603262706
152,Mehamn,71.04,27.85,32.0,86,40,5.82,NO,1603262707
153,Necochea,-38.55,-58.74,36.0,91,0,3.0,AR,1603262528
154,San Cristobal,7.77,-72.22,65.14,90,100,1.77,VE,1603262645
155,Barrow,71.29,-156.79,30.2,86,90,16.11,US,1603262707
156,Nikolskoye,59.7,30.79,32.0,88,90,4.47,RU,1603262708
157,Sandpoint,48.28,-116.55,37.99,93,1,1.14,US,1603262708
158,Ketchikan,55.34,-131.65,41.0,100,90,3.36,US,1603262459
159,Yulara,-25.24,130.99,100.4,10,0,19.46,AU,1603262708
160,Pisco,-13.7,-76.22,62.6,82,43,9.17,PE,1603262656
161,Esso,55.93,158.7,25.74,92,78,9.22,RU,1603262709
162,Mtimbira,-8.78,36.35,86.68,44,81,3.09,TZ,1603262709
163,Chokurdakh,70.63,147.92,9.18,94,98,6.69,RU,1603262709
164,Hobyo,5.35,48.53,83.88,69,1,7.58,SO,1603262709
165,Pangnirtung,66.15,-65.71,21.9,93,93,3.44,CA,1603262471
166,Naze,28.37,129.48,80.6,74,75,13.87,JP,1603262709
167,Fort Nelson,58.81,-122.7,15.8,66,40,6.93,CA,1603262710
168,São Félix do Xingu,-6.64,-51.99,73.63,79,51,0.63,BR,1603262710
169,Kombissiri,12.07,-1.34,75.2,83,0,2.24,BF,1603262710
170,Ahipara,-35.17,173.17,59.68,83,89,3.2,NZ,1603262710
171,Banda Aceh,5.56,95.32,87.71,56,5,14.99,ID,1603262710
172,Ilulissat,69.22,-51.1,33.8,80,100,9.17,GL,1603262689
173,Kavieng,-2.57,150.8,77.43,88,100,5.17,PG,1603262711
174,Half Moon Bay,37.46,-122.43,64.99,59,1,2.35,US,1603262412
175,Seoul,37.57,126.98,64.4,59,75,5.82,KR,1603262645
176,Boajibu,8.18,-11.33,72.14,96,43,0.92,SL,1603262711
177,Khon Buri,14.53,102.25,80.01,88,75,6.93,TH,1603262711
178,Thompson,55.74,-97.86,23.0,85,90,2.24,CA,1603262711
179,Sitka,57.05,-135.33,37.4,86,75,5.82,US,1603262712
180,Mossamedes,-15.2,12.15,69.82,84,92,8.48,AO,1603262712
181,Zverinogolovskoye,54.46,64.85,43.3,62,100,7.27,RU,1603262712
182,Meulaboh,4.14,96.13,86.76,60,98,7.99,ID,1603262712
183,Clyde River,70.47,-68.59,28.4,86,90,13.87,CA,1603262712
184,Ust-Kuyga,70.02,135.6,5.11,93,63,5.01,RU,1603262713
185,Chaohu,31.6,117.87,69.8,49,100,6.71,CN,1603262713
186,College,64.86,-147.8,21.99,85,90,1.12,US,1603262614
187,Cherskiy,68.75,161.3,19.47,97,79,2.55,RU,1603262421
188,Mildura,-34.2,142.15,82.99,19,45,8.05,AU,1603262555
189,Makakilo City,21.35,-158.09,80.6,74,1,4.7,US,1603262714
190,Kilinochchi,9.4,80.4,89.98,54,99,16.2,LK,1603262714
191,Narón,43.52,-8.15,57.0,93,40,8.05,ES,1603262714
192,Kampot,10.62,104.18,82.4,88,40,1.12,KH,1603262714
193,Kruisfontein,-34.0,24.73,63.0,66,0,3.0,ZA,1603262714
194,Los Llanos de Aridane,28.66,-17.92,73.4,53,40,17.22,ES,1603262715
195,Lakes Entrance,-37.88,147.98,57.0,83,72,3.0,AU,1603262715
196,Yairipok,24.67,94.07,76.21,84,62,3.11,IN,1603262715
197,Jumla,29.27,82.18,70.27,20,0,5.17,NP,1603262715
198,Mandera,3.94,41.87,86.36,50,50,10.8,KE,1603262716
199,Saint-Pierre,-21.34,55.48,82.4,54,20,23.04,RE,1603262713
200,Katsuura,35.13,140.3,69.01,63,20,16.11,JP,1603262535
201,Port Elizabeth,-33.92,25.57,62.6,63,0,6.93,ZA,1603262716
202,Tura,25.52,90.22,82.92,79,52,1.19,IN,1603262716
203,Katobu,-4.94,122.53,89.89,49,37,3.04,ID,1603262717
204,Roebourne,-20.78,117.13,89.94,29,92,23.94,AU,1603262717
205,Santa Vitória do Palmar,-33.52,-53.37,57.96,73,97,12.53,BR,1603262717
206,Sioux Lookout,50.1,-91.92,28.4,92,90,3.36,CA,1603262717
207,New Norfolk,-42.78,147.06,57.99,56,100,1.01,AU,1603262717
208,Ndélé,8.41,20.65,80.65,73,85,2.15,CF,1603262718
209,Vila Velha,-20.33,-40.29,68.0,94,40,5.82,BR,1603262718
210,Ancud,-41.87,-73.82,39.99,86,0,4.7,CL,1603262718
211,Khanpur,28.65,70.66,96.6,9,0,2.21,PK,1603262700
212,Saint George,37.1,-113.58,62.6,16,1,5.82,US,1603262707
213,Khatanga,71.97,102.5,5.72,95,81,7.61,RU,1603262719
214,Mizdah,31.45,12.98,59.79,70,0,8.7,LY,1603262719
215,Vero Beach,27.64,-80.4,73.4,94,90,12.75,US,1603262719
216,San Patricio,28.02,-97.52,79.0,94,20,5.82,US,1603262719
217,Hwange,-18.37,26.5,90.45,15,0,10.65,ZW,1603262468
218,Karratha,-20.74,116.85,85.37,37,100,23.51,AU,1603262656
219,Malaya Serdoba,52.47,44.95,37.58,76,93,17.09,RU,1603262720
220,Ambon City,-3.7,128.18,84.2,79,40,8.05,ID,1603262720
221,Vila Franca do Campo,37.72,-25.43,59.0,72,20,12.75,PT,1603262720
222,Goderich,43.75,-81.72,46.99,86,100,25.75,CA,1603262499
223,Vao,-22.67,167.48,73.2,85,4,13.11,NC,1603262720
224,Lebu,-37.62,-73.65,47.17,87,2,15.77,CL,1603262721
225,Aasiaat,68.71,-52.87,29.71,96,100,4.29,GL,1603262721
226,Pevek,69.7,170.31,31.82,96,100,12.01,RU,1603262437
227,Anjiang,27.32,110.1,69.4,54,1,6.04,CN,1603262721
228,Touros,-5.2,-35.46,73.4,94,75,4.7,BR,1603262721
229,Hithadhoo,-0.6,73.08,82.6,78,0,12.93,MV,1603262722
230,Kashgar,39.45,75.98,64.4,15,0,4.47,CN,1603262722
231,Aksarka,66.56,67.8,23.09,98,92,7.43,RU,1603262722
232,Shalyhyne,51.57,34.12,41.85,73,100,9.19,UA,1603262722
233,Torbay,47.67,-52.73,60.01,87,75,20.8,CA,1603262723
234,Zeya,53.75,127.27,37.09,82,100,7.67,RU,1603262723
235,Atbasar,51.8,68.33,57.74,33,10,12.46,KZ,1603262723
236,Pandan,14.05,124.17,86.61,69,42,12.97,PH,1603262723
237,Magole,-6.37,37.37,73.4,78,20,5.41,TZ,1603262723
238,Sirte,31.21,16.59,72.28,50,98,6.6,LY,1603262723
239,Boda,4.32,17.47,71.89,95,100,3.33,CF,1603262724
240,Neuquén,-38.95,-68.06,60.8,44,0,16.11,AR,1603262724
241,Puerto Escondido,15.85,-97.07,78.17,80,100,5.97,MX,1603262691
242,Comodoro Rivadavia,-45.87,-67.5,41.0,80,71,1.12,AR,1603262724
243,Rajaori,33.38,74.3,78.96,20,0,6.62,IN,1603262490
244,Suntar,62.14,117.63,24.76,91,100,5.99,RU,1603262724
245,Biak,-0.91,122.88,83.57,63,20,9.46,ID,1603262725
246,Arrondissement de Figeac,44.75,1.92,63.0,77,90,28.86,FR,1603262725
247,Riyadh,24.69,46.72,80.6,14,0,6.93,SA,1603262723
248,Klaksvík,62.23,-6.59,39.2,80,0,12.75,FO,1603262689
249,Morondava,-20.28,44.28,86.31,39,0,4.43,MG,1603262725
250,Husavik,66.04,-17.34,26.6,92,98,3.36,IS,1603262469
251,General Roca,-39.03,-67.58,60.8,44,0,16.11,AR,1603262726
252,Gizo Government Station,-8.1,156.84,81.0,76,100,12.12,SB,1603262726
253,Najrān,17.49,44.13,77.0,17,0,2.24,SA,1603262726
254,San Policarpo,12.18,125.51,84.52,79,100,9.69,PH,1603262726
255,Iqaluit,63.75,-68.51,32.0,96,90,5.82,CA,1603262726
256,Tārūt,26.57,50.04,80.6,18,0,6.93,SA,1603262727
257,Ugoofaaru,5.67,73.0,82.44,78,0,13.35,MV,1603262727
258,Mayor Pablo Lagerenza,-19.93,-60.77,71.35,88,100,3.06,PY,1603262464
259,Port Hardy,50.7,-127.42,44.6,87,20,9.17,CA,1603262519
260,Marsh Harbour,26.54,-77.06,80.94,73,100,23.33,BS,1603262728
261,Bubaque,11.28,-15.83,81.73,80,95,9.08,GW,1603262728
262,Urengoy,65.97,78.37,28.58,98,100,8.25,RU,1603262728
263,Nouadhibou,20.93,-17.03,75.2,60,8,16.11,MR,1603262728
264,L'govskiy,51.63,35.28,41.09,71,100,8.25,RU,1603262728
265,Susanville,40.42,-120.65,51.01,63,1,4.7,US,1603262729
266,Bilibino,68.05,166.44,22.77,94,100,1.54,RU,1603262729
267,Eirunepé,-6.66,-69.87,70.43,98,100,2.01,BR,1603262729
268,Palmer,42.16,-72.33,59.0,100,90,1.97,US,1603262729
269,Kaputa,-8.47,29.66,77.32,60,95,5.23,ZM,1603262729
270,Rawson,-43.3,-65.1,50.0,76,75,5.82,AR,1603262730
271,Yatou,37.15,122.38,68.59,53,0,13.69,CN,1603262730
272,Dunedin,-45.87,170.5,51.01,69,100,5.99,NZ,1603262437
273,Sosnovo-Ozerskoye,52.52,111.54,28.67,84,96,13.15,RU,1603262730
274,Kuusamo,65.97,29.18,26.6,86,90,4.7,FI,1603262730
275,Plettenberg Bay,-34.05,23.37,62.42,60,0,5.77,ZA,1603262730
276,Neiafu,-18.65,-173.98,75.2,73,75,8.05,TO,1603262731
277,Winsum,53.33,6.52,55.99,94,100,12.59,NL,1603262716
278,Shimoda,34.67,138.95,68.0,56,40,18.34,JP,1603262731
279,Lethem,3.38,-59.8,79.0,75,7,10.83,GY,1603262731
280,Pangai,-19.8,-174.35,75.2,60,20,12.75,TO,1603262732
281,Te Anau,-45.42,167.72,45.93,74,20,4.25,NZ,1603262732
282,Kastamonu Province,41.5,33.67,48.2,93,75,9.17,TR,1603262732
283,Saint Anthony,45.02,-93.22,34.0,100,90,3.36,US,1603262732
284,Airai,-8.93,125.41,76.62,49,40,3.44,TL,1603262484
285,Zabul Province,32.25,67.25,65.91,18,0,1.88,AF,1603262732
286,Boo,59.33,18.28,48.0,93,75,2.24,SE,1603262733
287,Lata,40.16,-8.33,57.99,94,22,1.01,PT,1603262733
288,Krasnyy Chikoy,50.36,108.75,33.44,76,78,10.09,RU,1603262733
289,Sakakah,29.97,40.21,75.2,13,0,7.52,SA,1603262733
290,Majene,-3.54,118.97,86.58,64,8,9.71,ID,1603262733
291,Mogocha,53.73,119.77,30.56,78,70,10.09,RU,1603262733
292,Zhuhai,22.28,113.57,80.6,65,20,19.46,CN,1603262734
293,Komono,35.0,136.52,77.0,46,75,10.29,JP,1603262734
294,Kvarkeno,52.08,59.73,44.67,56,0,14.83,RU,1603262734
295,Biloela,-24.42,150.5,75.31,66,65,16.96,AU,1603262734
296,Rome,43.21,-75.46,50.0,93,90,6.93,US,1603262459
297,Matagami,49.75,-77.63,26.6,100,90,3.36,CA,1603262735
298,Carnot,4.94,15.87,76.26,80,87,0.67,CF,1603262735
299,Dingle,11.0,122.67,83.35,81,94,14.88,PH,1603262735
300,Straumen,63.87,11.3,37.99,100,75,4.7,NO,1603262735
301,Dalbandin,28.89,64.41,77.56,14,0,8.32,PK,1603262735
302,St. George's,12.06,-61.75,81.28,81,2,10.76,GD,1603262735
303,Edd,13.93,41.69,89.62,47,0,3.29,ER,1603262735
304,Letterkenny,54.95,-7.73,51.87,89,100,15.37,IE,1603262736
305,Sarakhs,36.54,61.16,71.6,26,0,6.93,IR,1603262736
306,Pacific Grove,36.62,-121.92,53.6,100,75,3.49,US,1603262736
307,Yumen,40.28,97.2,66.34,20,0,16.44,CN,1603262736
308,Talnakh,69.49,88.4,8.6,92,100,6.71,RU,1603262736
309,Flin Flon,54.77,-101.86,22.84,90,33,1.5,CA,1603262736
310,Ishinomaki,38.42,141.3,64.4,52,75,8.05,JP,1603262737
311,Aitape,-3.14,142.35,83.19,70,100,2.51,PG,1603262737
312,Marawi,8.0,124.29,89.01,55,100,8.01,PH,1603262737
313,Sorong,-0.88,131.25,85.66,62,4,6.04,ID,1603262737
314,Varėna,54.22,24.57,42.8,93,90,9.17,LT,1603262738
315,Ostrovnoy,68.05,39.51,36.36,81,100,10.69,RU,1603262738
316,Marathon,44.9,-89.77,33.8,100,90,3.36,US,1603262738
317,Port Hedland,-20.32,118.57,86.0,51,95,20.8,AU,1603262738
318,Altay,47.87,88.12,54.54,35,0,3.38,CN,1603262738
319,Oktyabr'skoye,43.06,44.74,51.01,81,90,2.08,RU,1603262739
320,George Town,5.41,100.34,89.6,59,40,6.93,MY,1603262739
321,Grand Gaube,-20.01,57.66,81.0,58,0,8.99,MU,1603262739
322,Dhidhdhoo,6.88,73.1,82.0,77,0,10.89,MV,1603262739
323,Panabá,21.28,-88.27,74.32,93,0,2.26,MX,1603262739
324,Esim,4.87,-2.24,78.17,86,97,6.06,GH,1603262739
325,Masakin,35.73,10.58,64.0,100,20,3.36,TN,1603262740
326,San Vicente,-26.62,-54.13,65.25,81,0,3.29,AR,1603262740
327,Riviere-au-Renard,49.0,-64.4,39.2,69,5,5.82,CA,1603262740
328,Tiarei,-17.53,-149.33,78.8,74,40,4.7,PF,1603262740
329,Kralendijk,12.15,-68.27,78.8,88,100,3.36,BQ,1603262740
330,Samarai,-10.62,150.67,80.71,82,10,10.13,PG,1603262741
331,Jalu,29.03,21.55,67.64,62,0,10.78,LY,1603262741
332,Parrita,9.52,-84.32,68.0,100,75,2.24,CR,1603262741
333,Venice,27.1,-82.45,78.01,88,90,10.29,US,1603262741
334,Yashalta,46.34,42.28,51.8,46,3,6.93,RU,1603262741
335,Catherinas Lust,6.4,-57.6,80.47,83,76,11.52,GY,1603262742
336,Nísia Floresta,-6.09,-35.21,73.4,94,75,4.7,BR,1603262742
337,Puerto del Rosario,28.5,-13.86,71.6,73,100,4.7,ES,1603262742
338,Fallon,39.47,-118.78,55.99,49,20,5.82,US,1603262742
339,Litovko,49.24,135.17,44.91,74,100,2.24,RU,1603262742
340,Poum,-20.23,164.02,76.12,73,58,8.21,NC,1603262743
341,Yerbogachën,61.28,108.01,24.91,91,98,8.84,RU,1603262678
342,Umluj,25.02,37.27,93.6,22,0,3.58,SA,1603262743
343,Vanavara,60.34,102.28,29.89,94,100,5.35,RU,1603262743
344,Egvekinot,66.32,-179.17,31.8,99,61,5.75,RU,1603262743
345,Verkhnyaya Inta,65.98,60.31,23.59,97,96,2.46,RU,1603262744
346,Kailua,21.4,-157.74,80.6,88,75,3.53,US,1603262744
347,Horsham,51.06,-0.33,57.2,100,75,6.93,GB,1603262564
348,Aleksandrov Gay,50.15,48.57,46.15,56,0,16.69,RU,1603262744
349,Hurghada,27.26,33.81,82.49,53,0,12.62,EG,1603262744
350,Bambous Virieux,-20.34,57.76,81.0,65,75,14.99,MU,1603262705
351,Zhoucheng,35.91,116.31,67.69,23,0,11.41,CN,1603262745
352,Ponta do Sol,32.67,-17.1,64.4,77,20,4.7,PT,1603262745
353,Caxias,38.7,-9.28,62.01,100,20,1.12,PT,1603262745
354,San Rafael,-34.62,-68.33,53.87,73,76,6.93,AR,1603262745
355,Quebo,11.33,-14.93,74.84,97,99,1.81,GW,1603262745
356,Nong Chik,6.84,101.18,86.76,66,62,9.44,TH,1603262746
357,Balaipungut,1.05,101.28,86.0,66,75,3.27,ID,1603262746
358,Sazonovo,59.09,35.23,32.56,94,100,3.91,RU,1603262746
359,Nome,64.5,-165.41,41.0,86,90,6.93,US,1603262746
360,Baruun-Urt,46.68,113.28,32.16,67,100,12.46,MN,1603262746
361,Dongsheng,39.82,109.98,46.15,39,0,14.29,CN,1603262747
362,Cayenne,4.93,-52.33,75.2,100,20,8.14,GF,1603262736
363,Raudeberg,61.99,5.14,44.01,95,100,13.53,NO,1603262747
364,Guerrero Negro,27.98,-114.06,68.23,89,84,9.89,MX,1603262747
365,Galich,58.38,42.35,33.35,90,100,11.59,RU,1603262747
366,Salinas,36.68,-121.66,53.6,100,90,1.7,US,1603262747
367,Esperance,-33.87,121.9,62.6,93,90,14.99,AU,1603262748
368,Evensk,61.95,159.23,32.16,93,4,3.71,RU,1603262748
369,De Panne,51.08,2.59,57.0,93,75,18.34,BE,1603262748
370,Umri,26.51,78.94,94.03,13,0,7.76,IN,1603262748
371,Krasnosel'kup,65.7,82.47,28.42,98,100,10.31,RU,1603262748
372,São João da Barra,-21.64,-41.05,70.74,90,1,2.06,BR,1603262749
373,Anadyr,64.75,177.48,41.0,82,76,17.9,RU,1603262749
374,Cidreira,-30.18,-50.21,66.85,94,44,13.91,BR,1603262749
375,Ikongo,-21.88,47.43,80.69,49,13,4.63,MG,1603262749
376,Yamethin,20.43,96.15,84.79,68,84,2.77,MM,1603262749
377,Windhoek,-22.56,17.08,73.99,19,0,8.05,NA,1603262695
378,Keminmaa,65.86,24.82,19.4,100,75,2.24,FI,1603262750
379,Luau,-10.71,22.22,75.65,65,59,5.75,AO,1603262750
380,Griffith,41.53,-87.42,54.0,93,90,9.17,US,1603262750
381,Saldanha,-33.01,17.94,53.6,76,0,5.82,ZA,1603262750
382,Anloga,5.79,0.9,77.0,94,20,5.82,GH,1603262750
383,Whitehorse,60.72,-135.05,19.4,62,90,10.29,CA,1603262751
384,Pombia,45.65,8.63,51.01,93,75,3.36,IT,1603262751
385,Presidencia Roque Sáenz Peña,-26.79,-60.44,72.01,91,0,8.7,AR,1603262751
386,Aktau,43.65,51.2,55.4,82,75,13.42,KZ,1603262751
387,Turukhansk,65.82,87.98,24.51,98,100,13.67,RU,1603262751
388,Lebanon,36.21,-86.29,57.2,93,90,4.9,US,1603262752
389,Upington,-28.45,21.26,62.6,21,30,12.75,ZA,1603262752
390,Sabha,27.04,14.43,69.15,62,56,13.51,LY,1603262752
391,Chifeng,42.27,118.96,48.07,44,0,15.37,CN,1603262485
392,Kuril'sk,45.23,147.88,46.47,59,0,5.12,RU,1603262753
393,Hong Kong,22.29,114.16,82.99,57,70,1.99,HK,1603262511
394,Magaria,13.0,8.91,84.67,17,0,6.2,NE,1603262753
395,Aswān,24.09,32.91,91.17,14,0,10.07,EG,1603262739
396,Mutsu,41.29,141.22,64.0,59,75,9.17,JP,1603262753
397,Stornoway,58.21,-6.39,48.2,93,75,33.33,GB,1603262753
398,San Juan,-31.54,-68.54,55.44,66,0,6.69,AR,1603262754
399,Waingapu,-9.66,120.26,87.13,60,1,9.8,ID,1603262754
400,Xichang,27.9,102.26,49.37,79,100,3.22,CN,1603262754
401,Luwuk,-0.95,122.79,85.14,60,13,8.08,ID,1603262754
402,Naica,27.85,-105.48,71.31,42,8,15.88,MX,1603262755
403,Galesong,-5.32,119.37,91.4,63,20,12.75,ID,1603262755
404,Chokwé,-24.53,32.98,72.79,65,100,14.14,MZ,1603262755
405,Quelimane,-17.88,36.89,86.0,66,40,10.29,MZ,1603262755
406,Iquique,-20.22,-70.14,64.4,68,90,2.13,CL,1603262502
407,Bairnsdale,-37.83,147.62,57.0,83,50,3.0,AU,1603262756
408,Bluefield,37.27,-81.22,60.8,63,1,3.98,US,1603262756
409,Raja,8.46,25.68,73.71,85,100,3.02,SS,1603262756
410,Arona,28.1,-16.68,72.0,68,20,3.36,ES,1603262756
411,Ust-Maya,60.42,134.53,24.3,98,100,3.58,RU,1603262756
412,Ust'-Ilimsk,58.0,102.66,33.87,92,100,6.44,RU,1603262757
413,Ulladulla,-35.35,150.47,71.6,60,93,11.41,AU,1603262485
414,Kirakira,-10.45,161.92,81.55,73,33,5.39,SB,1603262757
415,Goya,-29.14,-59.26,61.11,87,48,9.93,AR,1603262757
416,Karpathos,35.51,27.21,66.2,82,20,16.11,GR,1603262757
417,Hereford,52.06,-2.71,57.0,96,100,1.77,GB,1603262757
418,Gbarnga,7.0,-9.47,70.34,98,19,0.38,LR,1603262758
419,Broken Hill,-31.95,141.43,80.6,20,0,6.93,AU,1603262758
420,Port Macquarie,-31.43,152.92,71.6,56,8,13.87,AU,1603262758
421,Nioro,13.35,-15.75,76.01,97,100,5.28,GM,1603262758
422,Xam Nua,20.42,104.04,70.92,58,90,4.29,LA,1603262758
423,Vardø,70.37,31.11,30.2,86,96,13.87,NO,1603262758
424,Baykit,61.67,96.37,30.74,94,100,4.61,RU,1603262759
425,Chunskiy,56.08,99.63,37.24,93,100,6.49,RU,1603262759
426,Beyneu,45.32,55.2,56.53,49,100,13.42,KZ,1603262759
427,Gabú,12.28,-14.22,75.38,96,93,3.65,GW,1603262759
428,Chadan,51.28,91.58,44.28,53,100,4.32,RU,1603262759
429,Port-Cartier,50.03,-66.87,34.0,80,5,5.82,CA,1603262760
430,Meadow Lake,34.8,-106.54,59.0,19,1,3.36,US,1603262760
431,Cheremkhovo,53.16,103.07,38.95,71,100,7.36,RU,1603262760
432,Sola,-13.88,167.55,78.8,94,90,15.41,VU,1603262461
433,Otradnoye,59.78,30.82,32.0,88,90,4.47,RU,1603262760
434,Wonogiri,-7.81,110.93,87.8,70,40,6.67,ID,1603262760
435,Puerto Triunfo,5.87,-74.64,73.69,94,100,0.09,CO,1603262761
436,Patrocínio,-18.94,-46.99,64.99,100,86,4.23,BR,1603262761
437,Faanui,-16.48,-151.75,78.96,79,0,13.87,PF,1603262725
438,Morant Bay,17.88,-76.41,80.6,83,75,11.41,JM,1603262761
439,Vrangel',42.73,133.08,59.31,78,100,16.98,RU,1603262761
440,Charyshskoye,51.4,83.56,58.89,35,50,2.71,RU,1603262762
441,Gulfport,30.37,-89.09,73.4,83,1,4.7,US,1603262762
442,Plouzané,48.38,-4.62,57.2,100,100,6.93,FR,1603262762
443,Golpāyegān,33.45,50.29,67.82,17,0,3.13,IR,1603262762
444,Nassau,40.75,-73.58,62.01,96,85,2.53,US,1603262762
445,Alta Floresta,-9.88,-56.09,75.16,68,100,3.49,BR,1603262645
446,Salalah,17.02,54.09,87.8,62,0,5.82,OM,1603262721
447,Mezen',65.85,44.24,33.93,90,97,9.44,RU,1603262763
448,Longonjo,-12.91,15.25,64.4,93,75,6.93,AO,1603262763
449,Port Moresby,-9.44,147.18,82.4,78,75,17.22,PG,1603262763
450,Laje,-10.18,-40.97,65.7,81,82,6.91,BR,1603262763
451,Emerald,-23.53,148.17,87.8,43,83,12.75,AU,1603262763
452,Mareeba,-17.0,145.43,84.99,54,0,9.17,AU,1603262764
453,Tottori-shi,35.5,134.23,73.4,49,75,9.17,JP,1603262764
454,Khatassy,61.9,129.64,21.2,85,75,6.71,RU,1603262764
455,Maragogi,-9.01,-35.22,75.06,86,100,7.92,BR,1603262541
456,Kudat,6.88,116.85,89.6,59,20,13.87,MY,1603262672
457,Tongliao,43.61,122.27,51.3,41,0,17.05,CN,1603262764
458,Sri Aman,1.24,111.46,93.2,63,40,3.36,MY,1603262765
459,Oistins,13.07,-59.53,80.6,78,40,5.82,BB,1603262765
460,Aykhal,66.0,111.5,8.6,84,90,2.24,RU,1603262765
461,Caucayá,-0.19,-74.78,71.98,98,100,0.85,CO,1603262765
462,Tilichiki,60.47,166.1,37.71,99,100,7.76,RU,1603262766
463,Stepnyak,52.83,70.78,51.66,41,100,12.5,KZ,1603262766
464,Krutinka,56.01,71.51,46.38,74,99,6.04,RU,1603262766
465,Sørland,67.67,12.69,41.0,60,75,23.04,NO,1603262731
466,Aripuanã,-9.17,-60.63,72.72,90,100,1.59,BR,1603262766
467,Hombourg-Haut,49.12,6.77,57.2,54,20,12.75,FR,1603262766
468,Abhā,18.22,42.51,64.4,18,0,9.17,SA,1603262767
469,Zhigansk,66.77,123.37,18.36,97,100,2.93,RU,1603262767
470,Casablanca,33.59,-7.62,68.0,82,40,11.41,MA,1603262536
471,Voh,-20.97,164.7,74.75,70,92,4.14,NC,1603262767
472,Kiryat Gat,31.61,34.76,80.01,1,0,4.0,IL,1603262761
473,Margate,51.38,1.39,57.0,95,100,4.0,GB,1603262768
474,Kwang Binh,17.48,106.6,70.92,86,100,14.97,VN,1603262768
475,Bethel,41.37,-73.41,60.01,100,90,1.9,US,1603262768
476,Manado,1.49,124.85,91.4,59,20,6.93,ID,1603262768
477,Shenjiamen,29.96,122.3,65.03,84,100,18.79,CN,1603262768
478,Escanaba,45.75,-87.06,44.01,87,90,8.05,US,1603262769
479,Kabwe,-14.45,28.45,84.76,25,0,11.99,ZM,1603262769
480,Yuzawa,39.17,140.5,62.6,48,75,10.29,JP,1603262769
481,Bonavista,48.65,-53.11,56.64,86,100,19.3,CA,1603262769
482,Alice Springs,-23.7,133.88,91.4,24,75,20.8,AU,1603262584
483,Imbituba,-28.24,-48.67,71.6,94,75,3.36,BR,1603262566
484,Petropavlovsk-Kamchatskiy,53.05,158.65,42.8,38,0,24.61,RU,1603262770
485,Novi Sanzhary,49.34,34.31,47.1,67,100,7.34,UA,1603262770
486,Leninsk,48.71,45.2,41.0,54,0,11.18,RU,1603262770
487,Rāvar,31.27,56.81,75.67,13,0,5.91,IR,1603262770
488,Mitú,1.2,-70.17,71.94,96,100,1.45,CO,1603262604
489,Oodweyne,9.41,45.06,82.09,15,12,7.31,SO,1603262770
490,Nemuro,43.32,145.57,55.4,71,20,12.75,JP,1603262771
491,Waipawa,-41.41,175.52,57.2,67,0,24.16,NZ,1603262771
492,Verkhoyansk,67.54,133.38,7.93,89,100,2.04,RU,1603262503
493,Sladkovo,55.53,70.34,47.5,69,94,6.33,RU,1603262771
494,Hornepayne,49.21,-84.77,29.77,98,100,7.85,CA,1603262771
495,Ixtapa,20.7,-105.2,82.99,90,82,1.43,MX,1603262708
496,Cape Canaveral,28.41,-80.6,80.6,74,20,11.41,US,1603262772
497,Fortuna,40.6,-124.16,52.0,93,1,3.36,US,1603262772
498,Launceston,-41.45,147.17,62.01,55,100,4.7,AU,1603262772
499,Natal,-5.79,-35.21,73.4,94,75,4.7,BR,1603262761
500,Mayumba,-3.43,10.66,78.51,83,100,4.65,GA,1603262772
501,Bakchar,57.02,82.07,50.74,67,100,10.69,RU,1603262773
502,Smithers,54.78,-127.17,32.0,94,90,2.35,CA,1603262703
503,Chunian,30.96,73.98,95.34,9,0,1.88,PK,1603262650
504,Ji’an,27.12,114.98,67.48,69,85,10.83,CN,1603262773
505,Caravelas,-17.71,-39.25,71.55,96,96,2.71,BR,1603262773
506,Dinghaicun,26.28,119.79,75.2,69,90,13.42,CN,1603262773
507,Biu,10.61,12.19,77.04,59,0,3.8,NG,1603262774
508,Mascote,-15.56,-39.3,68.54,97,62,1.05,BR,1603262774
509,Yar-Sale,66.83,70.83,26.46,98,90,5.84,RU,1603262774
510,Codrington,-38.27,141.97,56.43,75,19,10.4,AU,1603262753
511,Olyka,50.72,25.81,44.01,80,100,4.47,UA,1603262774
512,Show Low,34.25,-110.03,51.8,23,1,6.93,US,1603262775
513,Nueva Santa Rosa,14.38,-90.28,64.0,82,98,9.17,GT,1603262775
514,Puerto Colombia,10.99,-74.95,77.0,94,40,3.36,CO,1603262775
515,Otane,-39.88,176.63,54.41,94,100,3.91,NZ,1603262775
516,Paita,-5.09,-81.11,63.46,83,100,8.5,PE,1603262775
517,Lavrentiya,65.58,-171.0,37.65,89,14,8.32,RU,1603262775
518,San Antonio,29.42,-98.49,73.4,83,40,9.17,US,1603262775
519,Zemio,5.03,25.14,76.19,87,100,3.27,CF,1603262776
520,Lishui,28.46,119.91,69.89,67,91,4.47,CN,1603262776
521,Mackenzie,55.3,-123.17,30.2,92,75,3.36,CA,1603262568
522,Rosa Zarate,0.33,-79.47,73.89,89,100,1.52,EC,1603262776
523,Jos,9.92,8.9,71.08,55,100,1.81,NG,1603262776
524,Kisangani,0.52,25.2,78.49,77,100,3.04,CD,1603262776
525,Kutum,14.2,24.67,81.28,15,16,21.21,SD,1603262777
526,Ingham,42.6,-84.38,51.8,93,90,13.87,US,1603262777
527,Kieta,-6.22,155.63,81.93,74,100,3.74,PG,1603262722
528,Toyooka,35.53,134.83,71.6,53,75,6.93,JP,1603262777
529,Port Keats,-14.25,129.55,88.18,56,4,12.35,AU,1603262501
530,Kautokeino,69.01,23.04,24.53,97,100,3.6,NO,1603262777
531,Pilar,-9.6,-35.96,71.6,94,75,3.36,BR,1603262778
532,Auki,-8.77,160.7,81.37,76,53,4.56,SB,1603262778
533,Komatipoort,-25.43,31.95,72.0,65,88,1.99,ZA,1603262778
534,Vostok,46.49,135.88,47.86,65,100,4.5,RU,1603262743
535,Borisoglebsk,51.37,42.08,37.0,82,0,13.13,RU,1603262778
536,Coyhaique,-45.58,-72.07,34.48,88,0,1.3,CL,1603262778
537,La Libertad,-2.23,-80.9,69.98,84,72,10.89,EC,1603262778
538,Byron Bay,-28.65,153.62,71.6,60,0,8.05,AU,1603262596
539,Bukama,-9.2,25.85,83.97,60,82,1.25,CD,1603262779
540,La Ronge,55.1,-105.28,23.0,79,90,3.36,CA,1603262779
541,Golyshmanovo,56.4,68.37,41.29,69,99,5.19,RU,1603262779
542,Wilmington Island,32.0,-80.97,73.99,88,40,4.7,US,1603262779
543,Värnamo,57.19,14.04,48.99,97,100,8.28,SE,1603262779
544,Harstad,68.8,16.53,32.0,87,76,20.8,NO,1603262780
545,Naples,40.83,14.25,62.01,76,0,3.36,IT,1603262780
546,Ranong,9.97,98.63,87.8,74,75,4.7,TH,1603262780
547,Oddur,4.12,43.89,79.07,69,60,9.22,SO,1603262780
548,Arzachena,41.08,9.39,44.6,100,0,1.12,IT,1603262780
549,Rassvet,46.83,40.75,49.96,49,0,5.23,RU,1603262780
550,Sfântu Gheorghe,45.87,25.78,43.45,63,100,1.61,RO,1603262551
551,Chimoré,-16.98,-65.13,71.73,93,100,0.49,BO,1603262781
552,Dromolaxia,34.88,33.59,82.4,37,20,2.24,CY,1603262697
553,Wanning,18.8,110.4,78.62,70,69,15.61,CN,1603262781
554,Bhaderwah,32.98,75.72,73.65,20,0,3.62,IN,1603262781
555,Toora-Khem,52.47,96.11,40.69,63,87,2.39,RU,1603262781
556,Cham,47.18,8.46,48.99,100,26,3.4,CH,1603262781
557,Longyearbyen,78.22,15.64,26.6,68,75,8.05,SJ,1603262782
558,Koulamoutou,-1.13,12.47,71.91,96,100,0.92,GA,1603262782
559,Mazagão,-0.12,-51.29,80.6,88,20,3.36,BR,1603262782
560,Portobelo,9.55,-79.65,78.8,94,40,4.7,PA,1603262782
561,Baie-Comeau,49.22,-68.15,32.0,88,1,6.93,CA,1603262782
562,Isangel,-19.55,169.27,78.8,78,75,9.17,VU,1603262782
563,Sur,22.57,59.53,85.73,38,0,11.72,OM,1603262783
564,Bilopillya,51.15,34.31,42.6,71,100,8.19,UA,1603262783
565,Sistranda,63.73,8.83,35.6,93,75,4.7,NO,1603262783
566,Sembakung,3.82,117.25,90.54,60,97,0.69,ID,1603262783
567,Nishihara,26.18,127.76,84.2,70,90,19.46,JP,1603262783
568,Shitanjing,39.23,106.34,55.58,32,0,17.49,CN,1603262783
569,Bulri,24.87,68.33,94.1,14,0,5.61,PK,1603262784
570,Koutsouras,35.03,25.95,70.0,61,2,11.01,GR,1603262784
